<markers>
<marker lat="30.4809579723704" lng="-87.2325184064226" intname="Airport BlvdandHancock Ln" intnum="285" />
<marker lat="30.4468887774643" lng="-87.2168588986996" intname="Dr Martin Luther King Blvd\/SBandTexar Dr" intnum="100" />
<marker lat="30.4976845852731" lng="-87.2682598687719" intname="Alfonso St\/SBandWingfoot Way" intnum="264" />
<marker lat="30.3888548412829" lng="-87.2727232135588" intname="Barrancas AveandOld Corry Field Rd\/Live Oak Ave" intnum="101" />
<marker lat="30.3877947626691" lng="-87.2762986637466" intname="Barrancas AveandSecond St" intnum="102" />
<marker lat="30.4638046273915" lng="-87.2528554255048" intname="Beverly PkwyandW St" intnum="201" />
<marker lat="30.3469440936445" lng="-87.4031202589189" intname="Bauer RdandBailey Middle School - N" intnum="156" />
<marker lat="30.3429409765136" lng="-87.4030725279918" intname="Bauer RdandBailey Middle School - S" intnum="157" />
<marker lat="30.4684751709316" lng="-87.3068022242774" intname="Bellview AveandBellview Elementary School\/W Bcn" intnum="161W" />
<marker lat="30.3809378892281" lng="-87.3510886912394" intname="Blue Angel PkwyandDog Track Rd" intnum="106" />
<marker lat="30.3394573113174" lng="-87.3468196490645" intname="Blue Angel PkwyandGulf Beach Hwy" intnum="110" />
<marker lat="30.421399331963" lng="-87.3286758659125" intname="Blue Angel PkwyandLillian Hwy" intnum="107" />
<marker lat="30.4380850838766" lng="-87.32415748981" intname="Blue Angel PkwyandMuldoon Rd" intnum="108" />
<marker lat="30.4616112303354" lng="-87.3242962894016" intname="Blue Angel PkwyandSaufley Field Rd" intnum="111" />
<marker lat="30.4733946423917" lng="-87.2253061796685" intname="Brent LnandDavis Hwy" intnum="113" />
<marker lat="30.4725685647667" lng="-87.2274266909387" intname="Brent LnandNB ramp\/E of I-110" intnum="114" />
<marker lat="30.4718273165762" lng="-87.2292984435307" intname="Brent LnandSB ramp\/W of I-110" intnum="115" />
<marker lat="30.4714334425955" lng="-87.2302815192951" intname="Brent LnandRawson Ln" intnum="116" />
<marker lat="30.4972821578568" lng="-87.2551048838061" intname="Burgess RdandPalafox St" intnum="184" />
<marker lat="30.9661906196634" lng="-87.3270547603437" intname="Bratt RdandByrneville Rd" intnum="154" />
<marker lat="30.9659240166803" lng="-87.4280973594652" intname="Bratt CrossroadsandCentury" intnum="112" />
<marker lat="30.9652369417155" lng="-87.4074940098497" intname="Bratt RdandNorthview High School - EB" intnum="303" />
<marker lat="30.9642826087406" lng="-87.4027196453534" intname="Bratt RdandNorthview High School - WB" intnum="304" />
<marker lat="30.5692517431333" lng="-87.2612094694934" intname="Chemstrand RdandKingsfield Rd" intnum="282" />
<marker lat="30.5475088185436" lng="-87.2620923719365" intname="Chemstrand RdandTen Mile Rd" intnum="229" />
<marker lat="30.4073206985208" lng="-87.2745129625614" intname="Old Corry Field RdandChiefs'  Way" intnum="136" />
<marker lat="30.5483982588297" lng="-87.3302954492555" intname="CR 97andCR 297A" intnum="153" />
<marker lat="30.4952318603739" lng="-87.1662557565584" intname="Creighton RdandOld Spanish Tr" intnum="333" />
<marker lat="30.4813628466987" lng="-87.2232424079788" intname="Davis HwyandAirport Blvd" intnum="118" />
<marker lat="30.4996776912561" lng="-87.2217405298271" intname="Davis HwyandBloodworth Ln\/University Mall" intnum="119" />
<marker lat="30.4940598029917" lng="-87.2225918173555" intname="Davis HwyandBurgess Rd" intnum="120" />
<marker lat="30.5335481855174" lng="-87.2836949732274" intname="Nine Mile Rd\/US 90AandFowler Ave" intnum="349" />
<marker lat="30.4631658018217" lng="-87.2631150083968" intname="Michigan AveandClifton Ave" intnum="356" />
<marker lat="30.4800035974193" lng="-87.2668170795528" intname="Marcus Pt BlvdandEnterprise Dr" intnum="357" />
<marker lat="30.4223363961548" lng="-87.2546304570389" intname="Mobile Hwy\/Cervantes\/US 90andShoemaker St" intnum="360" />
<marker lat="30.5479895305626" lng="-87.2814596206337" intname="Palafox HwyandTen Mile Rd" intnum="354" />
<marker lat="30.74000790808" lng="-87.3593442615456" intname="Pensacola-Atmore HwyandMolino Park Elementary - E" intnum="239" />
<marker lat="30.743666666833" lng="-87.3651999997614" intname="Pensacola-Atmore HwyandMolino Park Elementary - W" intnum="336" />
<marker lat="30.5296818449703" lng="-87.2083561092975" intname="Davis HwyandCopter Rd" intnum="121" />
<marker lat="30.4960846679278" lng="-87.2218878096075" intname="Davis HwyandCreighton Rd" intnum="122" />
<marker lat="30.5172472872354" lng="-87.2153257784515" intname="Davis HwyandJohnson Ave" intnum="125" />
<marker lat="30.5078642918086" lng="-87.2214244522216" intname="Davis HwyandNorthcross Ln\/McDonald's" intnum="127" />
<marker lat="30.5103136079893" lng="-87.2207791690801" intname="Davis HwyandOlive Rd" intnum="128" />
<marker lat="30.5415677852992" lng="-87.1971018940382" intname="Davis HwyandScenic Hwy" intnum="131" />
<marker lat="30.5116485406026" lng="-87.2197644808297" intname="Davis HwyandUniversity Pkwy\/Academy" intnum="130" />
<marker lat="30.4470695446549" lng="-87.2156535187696" intname="Davis Hwy\/NBandTexar Dr" intnum="129" />
<marker lat="30.5395723188048" lng="-87.1976882903447" intname="Davis Hwy\/US 90AandRockwood Rd\/Campus Blvd" intnum="227" />
<marker lat="30.3881493445979" lng="-87.3591999169413" intname="Dog Track RdandBlue Angels Elementary - W" intnum="317" />
<marker lat="30.3864626248526" lng="-87.3568754399969" intname="Dog Track RdandBlue Angels Elementary - E" intnum="316" />
<marker lat="30.4335515448966" lng="-87.229293745682" intname="E StandJordan St" intnum="133" />
<marker lat="30.4413551635538" lng="-87.2288286053404" intname="E StandLeonard St" intnum="134" />
<marker lat="30.4316544425217" lng="-87.2958308688295" intname="Fairfield Drand61st Ave" intnum="148" />
<marker lat="30.4409227893526" lng="-87.2591954168381" intname="Fairfield DrandHollywood Dr" intnum="283" />
<marker lat="30.4174875933548" lng="-87.3173889829599" intname="Fairfield DrandJackson St\/Crow Rd" intnum="139" />
<marker lat="30.4451182854533" lng="-87.2358231164299" intname="Fairfield DrandL St" intnum="140" />
<marker lat="30.4212217326513" lng="-87.3172851651109" intname="Fairfield DrandLillian Hwy" intnum="141" />
<marker lat="30.4452343193927" lng="-87.2398628975799" intname="Fairfield DrandPace Blvd" intnum="143" />
<marker lat="30.4471245312557" lng="-87.2290515716017" intname="Fairfield DrandPalafox St" intnum="144" />
<marker lat="30.4312023831079" lng="-87.3077643810437" intname="Fairfield DrandPatricia Dr\/72nd Ave" intnum="145" />
<marker lat="30.4379348190241" lng="-87.2620141678066" intname="Fairfield DrandRuby Ave" intnum="146" />
<marker lat="30.4348141524643" lng="-87.2730293963809" intname="Fairfield DrandSouth Dakota St\/Lowe's" intnum="334" />
<marker lat="30.4451519999267" lng="-87.2319755846682" intname="Fairfield DrandTexar Dr" intnum="147" />
<marker lat="30.4442487442851" lng="-87.2487074215192" intname="Fairfield DrandW St" intnum="198" />
<marker lat="30.3807573157224" lng="-87.3085820011609" intname="Gulf Beach HwyandFairfield Dr" intnum="149" />
<marker lat="30.5074990621809" lng="-87.2693219706773" intname="Hope Dr\/WBanda and GC Railroad Crossing" intnum="155" />
<marker lat="30.3154554187849" lng="-87.4415364838164" intname="Innerarity RdandInnerarity Point Fire Station\/W Bcn" intnum="330W" />
<marker lat="30.4168970487802" lng="-87.2918776669909" intname="Jackson Stand57th Ave" intnum="158" />
<marker lat="30.417103196553" lng="-87.3005644552204" intname="Jackson Stand65th Ave" intnum="271" />
<marker lat="30.5179121631845" lng="-87.2494413392776" intname="Johnson AveandEnsley Elementary\/E Bcn" intnum="307E" />
<marker lat="30.517976968206" lng="-87.2508382236799" intname="Johnson AveandEnsley Elementary\/W Bcn" intnum="307W" />
<marker lat="30.5780030313925" lng="-87.3284435391826" intname="Kingsfield RdandCR 297A" intnum="151" />
<marker lat="30.5783731439644" lng="-87.3453812157558" intname="Kingsfield RdandRansom Middle School - W" intnum="339" />
<marker lat="30.5784128103853" lng="-87.3399033702785" intname="Kingsfield RdandRansom Middle School - E" intnum="305" />
<marker lat="30.5702845043326" lng="-87.3011195508131" intname="Kingsfield RdandTate High Entrance\/EB" intnum="306" />
<marker lat="30.5703577139573" lng="-87.2986248128023" intname="Kingsfield RdandTate High Entrance\/WB" intnum="321" />
<marker lat="30.5701880522385" lng="-87.2950310028812" intname="Kingsfield RdandTate Rd" intnum="150" />
<marker lat="30.4879854599837" lng="-87.1968082347297" intname="Langley AveandTippin Ave" intnum="286" />
<marker lat="30.4882311696064" lng="-87.2074821819757" intname="(Langley)-Lanier-UnderwoodandHolm Elem\/Workman Middle\/W Bcn" intnum="389" />
<marker lat="30.4882886382899" lng="-87.2046227486594" intname="(Langley)-Lanier-UnderwoodandHolm Elem\/Workman Middle\/E Bcn" intnum="388" />
<marker lat="30.4881482831794" lng="-87.2053456958946" intname="Langley-(Lanier)-UnderwoodandHolm Elem\/Workman Middle\/N Bcn" intnum="387" />
<marker lat="30.4855763341977" lng="-87.2051663091995" intname="Langley-(Lanier)-UnderwoodandHolm Elem\/Workman Middle\/S Bcn" intnum="259" />
<marker lat="30.4254569623581" lng="-87.2918055103029" intname="Lillian Hwyand57th Ave" intnum="294" />
<marker lat="30.4226331276947" lng="-87.3003047027421" intname="Lillian Hwyand65th Ave" intnum="280" />
<marker lat="30.420883046831" lng="-87.3046377237225" intname="Lillian Hwyand69th Ave" intnum="163" />
<marker lat="30.4209115415499" lng="-87.308686382752" intname="Lillian HwyandMyrtle Grove Fire Station" intnum="261" />
<marker lat="30.4239239741702" lng="-87.2971974746848" intname="Lillian HwyandMyrtle Grove Elementary\/W Bcn" intnum="241W" />
<marker lat="30.4243518986053" lng="-87.2965502188047" intname="Lillian HwyandMyrtle Grove Elementary\/E Bcn" intnum="241E" />
<marker lat="30.4231275486067" lng="-87.2993775909204" intname="Lillian HwyandLittle Flower Catholic School\/E Bcn" intnum="238E" />
<marker lat="30.4228726505447" lng="-87.2995743597138" intname="Lillian HwyandLittle Flower Catholic School\/W Bcn" intnum="238W" />
<marker lat="30.4865246332714" lng="-87.2979781656965" intname="Longleaf DrandCommunity Dr" intnum="318" />
<marker lat="30.4521780844758" lng="-87.2627138500769" intname="Massachusetts AveandHollywood Ave" intnum="164" />
<marker lat="30.4530446384338" lng="-87.2592967102663" intname="Massachusetts AveandMontclair Elementary\/W Bcn" intnum="240W" />
<marker lat="30.4536007597752" lng="-87.257716086725" intname="Massachusetts AveandMontclair Elementary\/E Bcn" intnum="240E" />
<marker lat="30.3423929951241" lng="-87.4082060251837" intname="Merlin RdandHellen Caro Elementary\/S Bcn" intnum="309S" />
<marker lat="30.460887568635" lng="-87.2905174680552" intname="Michigan AveandMemphis Ave" intnum="165" />
<marker lat="30.4212679739483" lng="-87.2502647600069" intname="Mobile Hwy\/Cervantes\/US 90andW St" intnum="200" />
<marker lat="30.4684733245897" lng="-87.3045902992892" intname="Mobile Hwy\/US 90andBellview Ave" intnum="262" />
<marker lat="30.4869470112373" lng="-87.3163302488588" intname="Mobile Hwy\/US 90andBlue Angel Pkwy" intnum="301" />
<marker lat="30.4363142837931" lng="-87.2781663753847" intname="Mobile Hwy\/US 90andCherokee Tr\/Wal-Mart" intnum="302" />
<marker lat="30.4407721700243" lng="-87.2826839210353" intname="Mobile Hwy\/US 90andEdison Dr" intnum="166" />
<marker lat="30.434201900414" lng="-87.2760397290601" intname="Mobile Hwy\/US 90andFairfield Dr" intnum="142" />
<marker lat="30.451371129236" lng="-87.2935962388561" intname="Mobile Hwy\/US 90andMarlane Dr\/Cerny Rd" intnum="167" />
<marker lat="30.4235538406198" lng="-87.2606361005711" intname="Mobile Hwy\/US 90andGreen St" intnum="230" />
<marker lat="30.4464572004609" lng="-87.2884378827025" intname="Mobile Hwy\/US 90andMassachusetts Ave" intnum="293" />
<marker lat="30.4611074259138" lng="-87.3009994047347" intname="Mobile Hwy\/US 90andMichigan Ave\/Saufley Field Rd." intnum="170" />
<marker lat="30.4735151238462" lng="-87.307039901587" intname="Mobile Hwy\/US 90andPine Forest Rd" intnum="169" />
<marker lat="30.7169736701639" lng="-87.3497800122606" intname="US 29, North\/Hwy 29andMolino Crossroads" intnum="208" />
<marker lat="30.7313902220584" lng="-87.3491985228551" intname="US 29, North\/Hwy 29andPensacola-Atmore Rd" intnum="215" />
<marker lat="30.3877166276101" lng="-87.2782570968538" intname="Navy BlvdandBarrancas Ave\/Gulf Beach Hwy" intnum="152" />
<marker lat="30.4036058387694" lng="-87.2771010653373" intname="Navy BlvdandNew Warrington Rd\/DeWitt Dr" intnum="173" />
<marker lat="30.382465062824" lng="-87.2778286346525" intname="Navy BlvdandSunset Dr" intnum="176" />
<marker lat="30.3855574468801" lng="-87.2780944405669" intname="Navy BlvdandWinthrop Ave" intnum="177" />
<marker lat="30.4073315846601" lng="-87.2732767754837" intname="Navy Blvd\/SR 294andChiefs' Way" intnum="137" />
<marker lat="30.4063848552924" lng="-87.2744163776026" intname="Navy Blvd\/SR 294andOld Corry Field Rd" intnum="174" />
<marker lat="30.3984226763565" lng="-87.2776492539836" intname="Navy BlvdandUS 98\/SR 298B\/Dr. Farin Dr" intnum="178" />
<marker lat="30.4400300106663" lng="-87.2602135140345" intname="Fairfield DrandRuby Ave\/WB Adv Warning" intnum="288" />
<marker lat="30.4280036158552" lng="-87.2696515222875" intname="Mobile Hwy\/US 90andNew Warrington Rd" intnum="168" />
<marker lat="30.359122564084" lng="-87.3432065545196" intname="Gulf Beach HwyandPleasant Grove Elementary - S" intnum="245" />
<marker lat="30.361200516555" lng="-87.344198234644" intname="Gulf Beach HwyandPleasant Grove Elementary - N" intnum="244" />
<marker lat="30.4841938292007" lng="-87.2395255704378" intname="Hancock LnandBrown Barge Middle School - E" intnum="300" />
<marker lat="30.4844823267264" lng="-87.2426252639703" intname="Hancock LnandBrown Barge Middle School - W" intnum="279" />
<marker lat="30.9639545223154" lng="-87.3270519152572" intname="Byrneville RdandByrneville Elementary\/S Bcn" intnum="310S" />
<marker lat="30.96507137629" lng="-87.3271386113067" intname="Byrneville RdandByrneville Elementary\/N Bcn" intnum="310N" />
<marker lat="30.4966862459619" lng="-87.2487034456747" intname="Burgess RdandWoodham Middle School\/W Bcn" intnum="253W" />
<marker lat="30.4966488177596" lng="-87.2478294883998" intname="Burgess RdandWoodham Middle School\/E Bcn" intnum="253E" />
<marker lat="30.5054677942376" lng="-87.276943073084" intname="Hope DrandLincoln Park Elementary\/W Bcn" intnum="314W" />
<marker lat="30.5063151653611" lng="-87.2756043457184" intname="Hope DrandLincoln Park Elementary\/E Bcn" intnum="314E" />
<marker lat="30.3158865359315" lng="-87.4401374342721" intname="Innerarity RdandInnerarity Point Fire Station\/E Bcn" intnum="330E" />
<marker lat="30.4071532343568" lng="-87.2766406904519" intname="New Warrington RdandChiefs' Way" intnum="138" />
<marker lat="30.4178843817046" lng="-87.2756957695283" intname="New Warrington RdandJackson St" intnum="179" />
<marker lat="30.426247069587" lng="-87.2713299394378" intname="New Warrington RdandLillian Hwy" intnum="180" />
<marker lat="30.5356069331146" lng="-87.3804855798601" intname="Nine Mile Rd\/US 90AandBeulah Rd" intnum="263" />
<marker lat="30.5329354931969" lng="-87.2624445730077" intname="Nine Mile Rd\/US 90AandChemstrand Rd" intnum="222" />
<marker lat="30.5319335000085" lng="-87.2142424287898" intname="Nine Mile Rd\/US 90AandCopter Rd" intnum="223" />
<marker lat="30.5326821656591" lng="-87.24769842406" intname="Nine Mile Rd\/US 90AandGuidy Ln" intnum="205" />
<marker lat="30.5330494179345" lng="-87.2666818067444" intname="Nine Mile Rd\/US 90AandHolsberry Rd" intnum="323" />
<marker lat="30.533279256398" lng="-87.2738010966446" intname="Nine Mile Rd\/US 90AandPalafox Hwy" intnum="225" />
<marker lat="30.5342392500141" lng="-87.3131078709719" intname="Nine Mile Rd\/US 90AandPine Forest Rd" intnum="226" />
<marker lat="30.5321410791285" lng="-87.2212239137632" intname="Nine Mile Rd\/US 90AandUniversity Pkwy" intnum="228" />
<marker lat="30.5333348058904" lng="-87.2778950036686" intname="Nine Mile Rd\/US 90AandHwy 29\/Pens Blvd SB Off Ramp" intnum="276" />
<marker lat="30.488015486786" lng="-87.1975039198862" intname="Ninth AveandLangley Ave" intnum="256" />
<marker lat="30.488658390777" lng="-87.1967828493992" intname="Ninth AveandTippin Ave" intnum="287" />
<marker lat="30.4182985693692" lng="-87.2725396176847" intname="Old Corry Field RdandJackson St" intnum="181" />
<marker lat="30.5110372824493" lng="-87.1853641950971" intname="Olive RdandNinth Ave" intnum="255" />
<marker lat="30.5106513876112" lng="-87.2269358110348" intname="Olive RdandWhitmire Rd" intnum="233" />
<marker lat="30.4489393881951" lng="-87.2397355518774" intname="Pace BlvdandHerman St" intnum="187" />
<marker lat="30.4340627414093" lng="-87.2404720036331" intname="Pace BlvdandJordan St" intnum="188" />
<marker lat="30.4415469714341" lng="-87.2400276409194" intname="Pace BlvdandLeonard St\/St Mary Ave" intnum="190" />
<marker lat="30.4757404562009" lng="-87.2456490679161" intname="Palafox HwyandAirport Blvd" intnum="183" />
<marker lat="30.5219835829292" lng="-87.2679269567318" intname="Palafox HwyandEnsley St" intnum="232" />
<marker lat="30.4825678888593" lng="-87.2482532448361" intname="Palafox HwyandHancock Ln" intnum="281" />
<marker lat="30.526378151592" lng="-87.2702206238964" intname="Palafox HwyandHood Dr" intnum="326" />
<marker lat="30.5198565830913" lng="-87.2668229906363" intname="Palafox HwyandJohnson Ave" intnum="273" />
<marker lat="30.5070807836183" lng="-87.2601830053049" intname="Palafox HwyandOlive Rd" intnum="186" />
<marker lat="30.4667053416677" lng="-87.2423330750064" intname="US 29\/Palafox HwyandBrent Ln\/Beverly Pkwy" intnum="209" />
<marker lat="30.438669205071" lng="-87.2216825839402" intname="US 29\/Palafox HwyandLeonard St\/Cross St" intnum="191" />
<marker lat="30.4589100419519" lng="-87.2392966214633" intname="US 29\/Palafox HwyandPace Blvd\/Massachusetts Ave" intnum="189" />
<marker lat="30.4450046037559" lng="-87.2272059267532" intname="US 29\/Palafox HwyandTexar Dr" intnum="192" />
<marker lat="30.3337368119619" lng="-87.1410936457947" intname="Pensacola Beach BlvdandVia De Luna\/Ft Pickens Rd" intnum="193" />
<marker lat="30.4742273287329" lng="-87.2481986449213" intname="US 29\/Pensacola BlvdandAirport Blvd" intnum="265" />
<marker lat="30.511370947166" lng="-87.2701252793268" intname="US 29\/Pensacola BlvdandBroad St" intnum="210" />
<marker lat="30.4961054942353" lng="-87.2630072986595" intname="US 29\/Pensacola BlvdandBurgess Rd" intnum="211" />
<marker lat="30.5187982022945" lng="-87.2727140804468" intname="US 29\/Pensacola BlvdandDetroit Blvd" intnum="212" />
<marker lat="30.4983765791166" lng="-87.2640902652525" intname="US 29\/Pensacola BlvdandDiamond Dairy Rd" intnum="257" />
<marker lat="30.5265160351371" lng="-87.2747919246197" intname="US 29\/Pensacola BlvdandHood Dr" intnum="213" />
<marker lat="30.4777916674541" lng="-87.2515419291549" intname="US 29\/Pensacola BlvdandIndustrial Blvd" intnum="160" />
<marker lat="30.6154117282902" lng="-87.3230001801712" intname="US 29\/Pensacola BlvdandPalafox Hwy\/Morris Ave" intnum="311" />
<marker lat="30.6114321778491" lng="-87.3203886048271" intname="US 29\/Pensacola BlvdandMuscogee Rd\/Beck's Lake Rd" intnum="207" />
<marker lat="30.5700638376985" lng="-87.2906105510088" intname="US 29\/Pensacola BlvdandKingsfield Rd" intnum="231" />
<marker lat="30.4944483420673" lng="-87.2622216006872" intname="US 29\/Pensacola BlvdandPinestead Rd" intnum="159" />
<marker lat="30.4815016293409" lng="-87.254988471885" intname="US 29\/Pensacola BlvdandStumpfield Rd\/Marcus Pointe Blvd" intnum="214" />
<marker lat="30.5480213189725" lng="-87.2827286566634" intname="US 29\/Pensacola BlvdandTen Mile Rd" intnum="278" />
<marker lat="30.4862370271774" lng="-87.258404654078" intname="US 29\/Pensacola BlvdandW St" intnum="204" />
<marker lat="30.5626581203959" lng="-87.2868532207708" intname="US 29\/Pensacola BlvdandWest Roberts Rd" intnum="234" />
<marker lat="30.486709007506" lng="-87.3064355351359" intname="Pine Forest RdandBlue Angel Pkwy\/Longleaf Dr" intnum="195" />
<marker lat="30.5366045000418" lng="-87.3130428760166" intname="Pine Forest RdandCR 297A" intnum="343" />
<marker lat="30.5223637788591" lng="-87.3134917333426" intname="Pine Forest RdandI-10 Ramp - North" intnum="291" />
<marker lat="30.5208977820451" lng="-87.3135327457198" intname="Pine Forest RdandI-10 Ramp - South" intnum="292" />
<marker lat="30.5196346177277" lng="-87.3134030112641" intname="Pine Forest RdandWilde Lake Blvd" intnum="196" />
<marker lat="30.4614366074537" lng="-87.3158169049748" intname="Saufley Field RdandMuldoon Rd" intnum="270" />
<marker lat="30.5078962933243" lng="-87.1637742581829" intname="Scenic Hwy\/US 90andI-10 WB Off Ramp" intnum="344" />
<marker lat="30.5053801410555" lng="-87.1619547656869" intname="Scenic Hwy\/US 90andI-10 EB Off Ramp" intnum="267" />
<marker lat="30.5201698445609" lng="-87.1742474860306" intname="Scenic Hwy\/US 90andOlive Rd" intnum="289" />
<marker lat="30.3408016084676" lng="-87.4032090229263" intname="Sorrento RdandBauer Rd" intnum="104" />
<marker lat="30.3605697891292" lng="-87.3587022218105" intname="Sorrento RdandBlue Angel Pkwy" intnum="109" />
<marker lat="30.3188677100181" lng="-87.4242048415891" intname="Sorrento Rd\/Perdido Key DrandGulf Beach Hwy\/Innerarity Rd" intnum="194" />
<marker lat="30.4448606857954" lng="-87.2286274554844" intname="Texar DrandE St" intnum="135" />
<marker lat="30.5434669027979" lng="-87.2180734326906" intname="University PkwyandCampus Blvd\/UWF" intnum="324" />
<marker lat="30.5405491936746" lng="-87.2195593823864" intname="University PkwyandHillview Rd" intnum="277" />
<marker lat="30.5177351436041" lng="-87.2206247557973" intname="University PkwyandJohnson Ave" intnum="260" />
<marker lat="30.5309106525016" lng="-87.2212182994352" intname="University PkwyandUniversity Town Center (Target)" intnum="325" />
<marker lat="30.3977283018855" lng="-87.4003127406523" intname="US 98\/Lillian HwyandBauer Rd" intnum="216" />
<marker lat="30.4033737992519" lng="-87.3424631175676" intname="US 98\/SR 298BandBlue Angel Pkwy" intnum="217" />
<marker lat="30.4014116137221" lng="-87.3178096781228" intname="US 98\/SR 298BandFairfield Dr" intnum="219" />
<marker lat="30.4027864950482" lng="-87.3740541025654" intname="US 98\/SR 298B\/Lillian HwyandLillian Hwy\/CR 297\/Dog Track Rd" intnum="218" />
<marker lat="30.3969964124163" lng="-87.3012399514258" intname="US 98\/SR 298Band61st Ave" intnum="332" />
<marker lat="30.3985751271883" lng="-87.3075210699419" intname="US 98\/SR 298Band72nd Ave" intnum="331" />
<marker lat="30.3972120060526" lng="-87.2877217966032" intname="US 98\/SR 298BandNavy Exchange\/PJC" intnum="220" />
<marker lat="30.3967395098282" lng="-87.2964364304524" intname="US 98\/SR 298BandNavy Hospital" intnum="221" />
<marker lat="30.4716114325201" lng="-87.2548779994035" intname="W StandAirport Blvd" intnum="266" />
<marker lat="30.4308367062764" lng="-87.2493181350921" intname="W StandAvery St" intnum="197" />
<marker lat="30.4278992359117" lng="-87.2497454491212" intname="W StandBlount St\/W Pensacola Fire Dept" intnum="254" />
<marker lat="30.4190826175265" lng="-87.2503115038266" intname="W StandJackson St" intnum="199" />
<marker lat="30.4813920046841" lng="-87.2587304969677" intname="W StandMarcus Pointe Blvd" intnum="274" />
<marker lat="30.4556237432477" lng="-87.2499691977176" intname="W StandMassachusetts Ave" intnum="202" />
<marker lat="30.4380096216354" lng="-87.2489982693323" intname="W StandScott St" intnum="203" />
<marker lat="30.3457036829466" lng="-87.4094338712091" intname="Merlin RdandHellen Caro Elementary\/N Bcn" intnum="309N" />
<marker lat="30.4740162493444" lng="-87.2557141367362" intname="W StandBrent Fire Station" intnum="206" />
<marker lat="30.5084688316299" lng="-87.2803896155828" intname="Untreiner RdandLincoln Park Elementary\/N Bcn" intnum="315N" />
<marker lat="30.5077299754643" lng="-87.2803124257057" intname="Untreiner RdandLincoln Park Elementary\/S Bcn" intnum="315S" />
<marker lat="30.5400892496256" lng="-87.1956305910474" intname="Scenic Hwy\/US 90\/NBandDavis Hwy\/US 90A" intnum="297" />
<marker lat="30.5744568599585" lng="-87.2920921679711" intname="US 29\/Pensacola BlvdandTate School Rd\/NB Adv Warning\/E Bcn" intnum="250E" />
<marker lat="30.5807632930552" lng="-87.2981152880803" intname="US 29\/Pensacola BlvdandTate School Rd\/SB Adv Warning\/W Bcn" intnum="249W" />
<marker lat="30.5769433830728" lng="-87.2936062977629" intname="US 29\/Pensacola BlvdandOld Chemstrand Rd\/NB Adv Warning\/E Bcn" intnum="366E" />
<marker lat="30.559426888595" lng="-87.2857506756616" intname="US 29\/Pensacola BlvdandWest Roberts Rd\/NB Adv Warning\/W Bcn" intnum="329W" />
<marker lat="30.5594516058742" lng="-87.2855896476812" intname="US 29\/Pensacola BlvdandWest Roberts Rd\/NB Adv Warning\/E Bcn" intnum="329E" />
<marker lat="30.5827496708418" lng="-87.3001590989702" intname="US 29\/Pensacola BlvdandOld Chemstrand Rd\/SB Adv WarningW Bcn" intnum="313W" />
<marker lat="30.5789118768029" lng="-87.2958609303736" intname="US 29\/Pensacola BlvdandOld Chemstrand Rd" intnum="246" />
<marker lat="30.3895972634888" lng="-87.2896038511153" intname="Patton DrandNavy Point Elementary - S" intnum="340" />
<marker lat="30.3880913261768" lng="-87.289407856825" intname="Patton DrandNavy Point Elementary - N" intnum="308" />
<marker lat="30.6067333293064" lng="-87.3174954912116" intname="US 29\/Pensacola BlvdandInternational Paper" intnum="269" />
<marker lat="30.5226433428867" lng="-87.2737866612144" intname="US 29\/Pensacola BlvdandEnsley Fire Station" intnum="268" />
<marker lat="30.6248999990558" lng="-87.3223833333643" intname="Palafox HwyandJim Allen Elementary - N" intnum="237" />
<marker lat="30.5099465324073" lng="-87.196614165963" intname="Olive RdandFerry Pass Middle School - E" intnum="272" />
<marker lat="30.5098316661958" lng="-87.1974638195481" intname="Olive RdandFerry Pass Middle School - W" intnum="236" />
<marker lat="30.5797921988817" lng="-87.2945987659616" intname="Palafox HwyandOld Chemstrand Rd" intnum="185" />
<marker lat="30.4049810533881" lng="-87.2743570313016" intname="Old Corry Field RdandWarrington Middle School\/N Bcn" intnum="252N" />
<marker lat="30.4034842458489" lng="-87.2740876113374" intname="Old Corry Field RdandWarrington Middle School\/S Bcn" intnum="252S" />
<marker lat="30.5351354812111" lng="-87.4085860485329" intname="Nine Mile Rd\/US 90AandMobile Hwy\/US 90" intnum="224" />
<marker lat="30.5322941438105" lng="-87.2255010574927" intname="Nine Mile Rd\/US 90AandBaldridge Dr\/Plainfield Ave" intnum="322" />
<marker lat="30.4685304561622" lng="-87.3054820996685" intname="Bellview AveandBellview Elementary School\/E Bcn" intnum="161E" />
<marker lat="30.4959864066831" lng="-87.2278574811467" intname="Creighton RdandPlantation Rd" intnum="346" />
<marker lat="30.5020069218822" lng="-87.2216664054182" intname="Davis HwyandInterstate 10 - Southside" intnum="124" />
<marker lat="30.5053950376169" lng="-87.2215844865934" intname="Davis HwyandInterstate 10 - Northside" intnum="123" />
<marker lat="30.515705941348" lng="-87.2165464296531" intname="Davis HwyandKlinger St" intnum="126" />
<marker lat="30.4380721319686" lng="-87.2495105857857" intname="Scott StandCatholic High School - E" intnum="327" />
<marker lat="30.4380737275554" lng="-87.2535540445023" intname="Scott StandCatholic High School - W" intnum="328" />
<marker lat="30.4038528884636" lng="-87.2763874770202" intname="Navy Blvd\/SR 294\/WBandCurve warning\/E - New Warrington" intnum="172" />
<marker lat="30.3403039619138" lng="-87.4043553111653" intname="Sorrento RdandMerlin Rd\/Hellen Caro Elem - E" intnum="290" />
<marker lat="30.3380536147448" lng="-87.4083831918156" intname="Sorrento RdandMerlin Rd\/Hellen Caro Elem - W" intnum="319" />
<marker lat="30.4706348122109" lng="-87.2323579872005" intname="Brent LnandPensacola Christian College" intnum="342" />
<marker lat="30.4955485501755" lng="-87.2327351639096" intname="Creighton RdandHilburn Rd" intnum="345" />
<marker lat="30.3436324308192" lng="-87.077754981318" intname="Via De Luna DrandPortofino Condos\/Pedestrian Xing\/E Bcn" intnum="341" />
<marker lat="30.4866333323326" lng="-87.2983666665121" intname="Longleaf DrandLongleaf Elementary School - E" intnum="299" />
<marker lat="30.4863766947846" lng="-87.2901063803962" intname="Longleaf DrandPineForestHigh\/GeorgeStoneCenter - E" intnum="350" />
<marker lat="30.6239000005183" lng="-87.3224499987606" intname="Palafox HwyandJim Allen Elementary - S" intnum="351" />
<marker lat="30.8959516129644" lng="-87.4750189716936" intname="Pensacola-Atmore HwyandErnest Ward Middle School - SE" intnum="352" />
<marker lat="30.8983928499897" lng="-87.4779816809925" intname="Pensacola-Atmore HwyandErnest Ward Middle School - NW" intnum="353" />
<marker lat="30.9627748418859" lng="-87.428152327114" intname="CR 99andBratt Elementary\/S Bcn" intnum="258S" />
<marker lat="30.9647005626349" lng="-87.4282224743726" intname="CR 99andBratt Elementary\/N Bcn" intnum="258N" />
<marker lat="30.3815666668585" lng="-87.2774166651144" intname="Navy BlvdandSt John's Catholic School - S" intnum="247" />
<marker lat="30.3916009602779" lng="-87.2783976585281" intname="Navy BlvdandWarrington Elementary - N" intnum="251" />
<marker lat="30.3901129101024" lng="-87.2783265137124" intname="Navy BlvdandWarrington Elementary - S" intnum="248" />
<marker lat="30.3888445801989" lng="-87.278295802472" intname="Navy BlvdandWarrington Fire Dept." intnum="335" />
<marker lat="30.3959105991426" lng="-87.277889714916" intname="Navy BlvdandWarrington Village\/Southgate" intnum="175" />
<marker lat="30.4616788651437" lng="-87.240399949389" intname="Palafox Hwy (1 controller)andBrentwood Elementary School\/S Bcn" intnum="162S" />
<marker lat="30.4630587745246" lng="-87.2410938280036" intname="Palafox Hwy (1 controller)andBrentwood Elementary School\/N Bcn" intnum="162N" />
<marker lat="30.5668812440716" lng="-87.289149863359" intname="US 29\/Pensacola BlvdandKingsfield Rd\/NB Adv Warning\/E Bcn" intnum="298E" />
<marker lat="30.5727202861367" lng="-87.2918506798506" intname="US 29\/Pensacola BlvdandKingsfield Rd\/SB Adv Warning\/W Bcn" intnum="320W" />
<marker lat="30.6191498096599" lng="-87.3256574466508" intname="US 29\/Pensacola BlvdandMorris Ave\/SB Adv Warning\/W Bcn" intnum="312W" />
<marker lat="30.3841166667998" lng="-87.2781333348343" intname="Navy BlvdandSt John's Catholic School - N" intnum="359" />
<marker lat="30.8961248476642" lng="-87.4755764083548" intname="Atmore HwyandArthur Brown Rd" intnum="348" />
<marker lat="30.4841638046843" lng="-87.2602739720026" intname="W StandEscambia Co Public Safety Center" intnum="347" />
<marker lat="30.3381453252923" lng="-87.1149346123412" intname="Via De Luna DrandPensacola Beach Elementary\/E Bcn" intnum="361" />
<marker lat="30.3376206307601" lng="-87.1158514854377" intname="Via De Luna DrandPensacola Beach Elementary\/W Bcn" intnum="103" />
<marker lat="30.3967898773982" lng="-87.2924152821424" intname="US 98\/SR 298BandVA Clinic (Veterans Way)(IssueNewSys#)" intnum="362" />
<marker lat="30.4606339091915" lng="-87.279397559336" intname="Michigan AveandS Gulf Manor" intnum="363" />
<marker lat="30.5327651883708" lng="-87.2539166998426" intname="Nine Mile Rd\/US 90AandHummingbird Blvd" intnum="364" />
<marker lat="30.4864821696324" lng="-87.3010255403699" intname="Longleaf DrandLongleaf Elementary School - W" intnum="358" />
<marker lat="30.2977251584945" lng="-87.4299702921432" intname="Perdido Key Dr\/EastboundandJohnson Bch Rd\/Adv Curve" intnum="295" />
<marker lat="30.486432241916" lng="-87.2977460168068" intname="Longleaf DrandPineForestHigh\/GeorgeStoneCenter- W" intnum="242" />
<marker lat="30.5762747131442" lng="-87.2933040054494" intname="US 29\/Pensacola BlvdandTate School Rd" intnum="275" />
<marker lat="30.5768547394912" lng="-87.2937306849408" intname="US 29\/Pensacola BlvdandOld Chemstrand Rd\/NB Adv Warning\/W Bcn" intnum="366W" />
<marker lat="30.5744241182136" lng="-87.2922687790185" intname="US 29\/Pensacola BlvdandTate School Rd\/NB Adv Warning\/W Bcn" intnum="250W" />
<marker lat="30.6192246090322" lng="-87.3255042147497" intname="US 29\/Pensacola BlvdandMorris Ave\/SB Adv Warning\/E Bcn" intnum="312E" />
<marker lat="30.5828631320997" lng="-87.3000342475442" intname="US 29\/Pensacola BlvdandOld Chemstrand Rd\/SB Adv Warning\/E Bcn" intnum="313E" />
<marker lat="30.5808879829197" lng="-87.2979545215005" intname="US 29\/Pensacola BlvdandTate School Rd\/SB Adv Warning\/E Bcn" intnum="249E" />
<marker lat="30.5727515278883" lng="-87.2916681009849" intname="US 29\/Pensacola BlvdandKingsfield Rd\/SB Adv Warning\/E Bcn" intnum="320E" />
<marker lat="30.5070070781561" lng="-87.3574782269535" intname="Mobile Hwy\/US 90andBeulah Elementary School - W" intnum="338" />
<marker lat="30.5057104629371" lng="-87.3545933565734" intname="Mobile Hwy\/US 90andBeulah Elementary School - E" intnum="337" />
<marker lat="30.5668364993698" lng="-87.2893097858171" intname="US 29\/Pensacola BlvdandKingsfield Rd\/NB Adv Warning\/W Bcn" intnum="298W" />
<marker lat="30.933050054687" lng="-87.2957000060021" intname="US 29, North\/Hwy 29andN.B. Rt. Adv. Warn. To Byrneville Rd." intnum="368" />
<marker lat="30.9331500120736" lng="-87.2958500088072" intname="US 29, North\/Hwy 29andN.B. Lt. Adv. Warn. To Byrneville Rd." intnum="369" />
<marker lat="30.9392833340434" lng="-87.2929000007329" intname="US 29, North\/Hwy 29andS.B. Rt. Adv. Warn. To Byrneville Rd." intnum="370" />
<marker lat="30.9391833326074" lng="-87.2927833314554" intname="US 29, North\/Hwy 29andS.B. Lt. Adv. Warn. To Byrneville Rd." intnum="371" />
<marker lat="30.9367424838558" lng="-87.2956762798421" intname="Byrneville RdandEB Adv. Solar Bcn. To Hwy. 29" intnum="372" />
<marker lat="30.3431325246743" lng="-87.0796652257503" intname="Via De Luna DrandPortofino Condos\/Pedestrian Xing\/W Bcn" intnum="355" />
<marker lat="30.5330679388676" lng="-87.2762671976461" intname="Nine Mile Rd\/US 90AandHwy 29\/Pens Blvd NB Off Ramp" intnum="373" />
<marker lat="30.5348846055045" lng="-87.3543005302757" intname="Nine Mile Rd\/US 90AandHeritage Oaks\/Navy Federal C.U." intnum="374" />
<marker lat="30.2816179390501" lng="-87.5179505322833" intname="Perdido Key Dr\/EastboundandPedestrian Xing at State Line S. Side" intnum="375" />
<marker lat="30.4780837308624" lng="-87.2721514933031" intname="Marcus Pt BlvdandMarquette Ave. EB 30 mph Solar Speed Bcn" intnum="378" />
<marker lat="30.7318007744291" lng="-87.365517129311" intname="Crabtree Church Rdand630' E. of Abbott Ln (EB Unit Only)" intnum="365" />
<marker lat="30.5263166956318" lng="-87.2881002027813" intname="Cove Ave East SideandRadar Speed Limit Sign (8899 Cove Ave)" intnum="367E" />
<marker lat="30.5263163031657" lng="-87.288195102844" intname="Cove Ave West SideandRadar Speed Limit Sign (8899 Cove Ave)" intnum="367W" />
<marker lat="30.2817506557184" lng="-87.5179663137936" intname="Perdido Key Dr\/WestboundandPedestrian Xing at State Line N. Side" intnum="284" />
<marker lat="30.2820506536654" lng="-87.5168496465111" intname="Perdido Key Dr\/WestboundandAdv Ped Xing at State Line N. Side" intnum="296" />
<marker lat="30.4813741416912" lng="-87.2294051301944" intname="Airport BlvdandNB ramp\/E of I-110" intnum="376" />
<marker lat="30.481312218764" lng="-87.2315722721981" intname="Airport BlvdandSB ramp\/W of I-110" intnum="377" />
<marker lat="30.4598511610868" lng="-87.339254236222" intname="Saufley Pines RdandSolar Speed Bcn(6151 Saufley Pines Rd)" intnum="383" />
<marker lat="30.5477843143976" lng="-87.2687335820914" intname="Ten Mile RdandMcArthur Elem\/Westgate School\/E Bcn" intnum="105" />
<marker lat="30.3374675904712" lng="-87.1174844480129" intname="Via De Luna DrandE. of 16 Avenida EB Solar Radar Speed Bcn" intnum="381" />
<marker lat="30.5477171024235" lng="-87.2729667559104" intname="Ten Mile RdandMcArthur Elem\/Westgate School\/W Bcn" intnum="380" />
<marker lat="30.4898625531907" lng="-87.3062583056177" intname="Pine Forest RdandBellview Fire Dept" intnum="382" />
<marker lat="30.4291973461305" lng="-87.2494550386164" intname="W StandW. Pensacola Fire Dept." intnum="384" />
<marker lat="30.3643495199157" lng="-87.3457591442035" intname="Sorrento RdandGulf Beach Hwy" intnum="385" />
<marker lat="30.4653737985936" lng="-87.3030897395805" intname="Mobile Hwy\/US 90andBellview Middle School\/N Bcn" intnum="386" />
<marker lat="30.4641405032617" lng="-87.302490940229" intname="Mobile Hwy\/US 90andBellview Middle School\/S Bcn" intnum="235" />
<marker lat="30.5108889184627" lng="-87.2380610010264" intname="Olive RdandCody Lane" intnum="391" />
<marker lat="30.5406635908634" lng="-87.2806390762196" intname="US 29\/Pensacola Blvdand9 1\/2 Mile Rd" intnum="392" />
</markers>