<markers>

<marker lat="28.3262299717539" lng="-81.3992688020332" intname="CARROLL ST and OLD DIXIE HWY" intnum="48" />
<marker lat="28.3402385115738" lng="-81.3934909037214" intname="OSCEOLA PKWY and ORANGE AVE" intnum="202" />
<marker lat="28.2632500227549" lng="-81.4361758896676" intname="PLEASANT HILL RD and NORTHGATE DR" intnum="187" />
<marker lat="28.3044335693081" lng="-81.4449796406551" intname="VINE ST and HOAGLAND BLVD" intnum="1" />
<marker lat="28.3044426880783" lng="-81.4412464559934" intname="VINE ST and ARMSTRONG BLVD" intnum="38" />
<marker lat="28.3044747323506" lng="-81.4367634511403" intname="VINE ST and DYER BLVD" intnum="2" />
<marker lat="28.3044847588946" lng="-81.4242682846301" intname="VINE ST and THACKER AVE" intnum="3" />
<marker lat="28.3044946523241" lng="-81.4200281092114" intname="VINE ST and EMORY AVE" intnum="50" />
<marker lat="28.3045024292918" lng="-81.4160035564453" intname="VINE ST and JOHN YOUNG PKWY" intnum="7" />
<marker lat="28.3045544432879" lng="-81.4077806704669" intname="VINE ST and CENTRAL AVE" intnum="12" />
<marker lat="28.3044587059896" lng="-81.4036605720267" intname="VINE ST and MAIN ST" intnum="17" />
<marker lat="28.3043143751261" lng="-81.3912802897518" intname="VINE ST and MICHIGAN AVE \/ OAK" intnum="20" />
<marker lat="28.3033582656595" lng="-81.3793130564045" intname="192and DENN JOHN LN" intnum="53" />
<marker lat="28.3151802168373" lng="-81.3791944993887" intname="DENN JOHN LN and MILL SLOUGH RD" intnum="77" />
<marker lat="28.2558035767351" lng="-81.4862925296801" intname="17-92 and POINCIANA BLVD" intnum="57" />
<marker lat="28.2606554478368" lng="-81.4363306132312" intname="531 (PLEASANT HILL) and 17-92" intnum="28" />
<marker lat="28.2898708986758" lng="-81.4160773599428" intname="JOHN YOUNG PKWY and PATRICK ST" intnum="32" />
<marker lat="28.2917291566219" lng="-81.4160807578196" intname="JOHN YOUNG PKWY and EMMETT ST" intnum="10" />
<marker lat="28.2935160464699" lng="-81.416112260042" intname="JOHN YOUNG PKWY and MABBETTE ST" intnum="9" />
<marker lat="28.3008825628805" lng="-81.4160071957915" intname="JOHN YOUNG PKWY and OAK ST" intnum="8" />
<marker lat="28.30808713808" lng="-81.4159697416958" intname="JOHN YOUNG PKWY and COLUMBIA ST" intnum="40" />
<marker lat="28.3189022433755" lng="-81.4160562408167" intname="JOHN YOUNG PKWY and DONEGAN AVE" intnum="6" />
<marker lat="28.3261849562373" lng="-81.4160679669065" intname="JOHN YOUNG PKWY and CARROLL ST" intnum="63" />
<marker lat="28.3424138903326" lng="-81.4201015156645" intname="JOHN YOUNG PKWY and OSCEOLA PKWY" intnum="103" />
<marker lat="28.3372522893716" lng="-81.403746839986" intname="441and OSCEOLA PKWY" intnum="51" />
<marker lat="28.3262408284572" lng="-81.4037095978143" intname="441and CARROLL ST" intnum="15" />
<marker lat="28.3189593078859" lng="-81.4036851123584" intname="441and DONEGAN" intnum="16" />
<marker lat="28.3088144634042" lng="-81.4036731608005" intname="MAIN ST and COLUMBIA ST" intnum="80" />
<marker lat="28.3008689337318" lng="-81.4036590482635" intname="OAK ST and MAIN ST" intnum="18" />
<marker lat="28.2955762875901" lng="-81.4039456560758" intname="BROADWAY and DRURY AVE \/ NEPTUNE" intnum="19" />
<marker lat="28.293359835158" lng="-81.4062887859502" intname="BROADWAY and MONUMENT AVE" intnum="14" />
<marker lat="28.2919417688142" lng="-81.407813940883" intname="BROADWAY and RUBY \/ STEWART" intnum="70" />
<marker lat="28.300942099752" lng="-81.4078319705943" intname="OAK ST and CENTRAL AVE" intnum="5" />
<marker lat="28.3008533387583" lng="-81.4242707225235" intname="OAK ST and THACKER AVE" intnum="4" />
<marker lat="28.3081010024407" lng="-81.4242718791213" intname="COLUMBIA AVE and THACKER" intnum="41" />
<marker lat="28.3080406227147" lng="-81.436522992588" intname="COLUMBIA AVE and DYER BLVD" intnum="67" />
<marker lat="28.3087022628513" lng="-81.4403771918471" intname="COLUMBIA AVE and ARMSTRONG BLVD" intnum="39" />
<marker lat="28.3037937991706" lng="-81.457493429424" intname="192and BASS RD" intnum="81" />
<marker lat="28.3186150889998" lng="-81.4701209191104" intname="192and SIESTA LAGO DR" intnum="58" />
<marker lat="28.3329508782108" lng="-81.4796208017377" intname="192and535" intnum="13" />
<marker lat="28.3356114731506" lng="-81.4796543596915" intname="535and KYNG`S HEATH" intnum="64" />
<marker lat="28.3420957975197" lng="-81.4834325408488" intname="535and  POINCIANA BLVD" intnum="104" />
<marker lat="28.3462713510536" lng="-81.4870354835183" intname="535and POLYNESION ISLE BLVD" intnum="89" />
<marker lat="28.3329210200899" lng="-81.4895698790754" intname="192and POINCIANA BLVD" intnum="49" />
<marker lat="28.3329106409032" lng="-81.4957275067957" intname="192and POLYNESIAN \/ SCOTT BLVD" intnum="61" />
<marker lat="28.3328301160874" lng="-81.517843578711" intname="192and HOLIDAY TRAIL" intnum="44" />
<marker lat="28.3328328997915" lng="-81.5117997339634" intname="192and SERA LAGO" intnum="90" />
<marker lat="28.3327795027574" lng="-81.5346179029636" intname="192and PARKWAY BLVD \\  CELEBRATION" intnum="59" />
<marker lat="28.3325756391289" lng="-81.5837176591171" intname="192and REEDY CREEK BLVD" intnum="79" />
<marker lat="28.3356355568134" lng="-81.5915236178045" intname="192and ENTRY POINT\/SHERBERTH" intnum="47" />
<marker lat="28.3401033863768" lng="-81.596810913588" intname="192and FORMOSA GARDENS BLVD" intnum="87" />
<marker lat="28.3465032599183" lng="-81.6054367024672" intname="192and BLACK LAKE RD" intnum="111" />
<marker lat="28.3325901826473" lng="-81.5767993350853" intname="192and GRIFFEN RD (B2)" intnum="142" />
<marker lat="28.340169861707" lng="-81.4851718353798" intname="OSCEOLA PKWY and POINCIANA BLVD" intnum="102" />
<marker lat="28.3398231011177" lng="-81.4814493934916" intname="535and OSCEOLA PKWY" intnum="115" />
<marker lat="28.3405793929526" lng="-81.3878629711394" intname="MICHIGAN AVE and OSCEOLA PKWY" intnum="25" />
<marker lat="28.3255514299969" lng="-81.3912684217661" intname="MICHIGAN AVE and CARROLL ST" intnum="23" />
<marker lat="28.3189596537435" lng="-81.3912796881113" intname="MICHIGAN AVE and DONEGAN AVE" intnum="26" />
<marker lat="28.3153216189329" lng="-81.3912773116445" intname="MICHIGAN AVE and MILL SLOUGH RD" intnum="54" />
<marker lat="28.3410261498349" lng="-81.3803800288341" intname="OSCEOLA PKWY and EXIT  249" intnum="101" />
<marker lat="28.3442390543365" lng="-81.3731162945501" intname="OSCEOLA PKWY and FLORIDA PKWY" intnum="27" />
<marker lat="28.3447978302753" lng="-81.3627471999731" intname="BVL BLVD and OSCEOLA PKWY" intnum="69" />
<marker lat="28.3451466115269" lng="-81.365650484582" intname="OSCEOLA PKWY and VENTURA DOWNS" intnum="141" />
<marker lat="28.3421178633915" lng="-81.3264415687262" intname="SIMPSON and OSCEOLA PKWY" intnum="144" />
<marker lat="28.3196772415035" lng="-81.3392432195362" intname="SIMPSON and BVL BLVD" intnum="55" />
<marker lat="28.3249816811986" lng="-81.3477518027083" intname="BVL BLVD and ROYAL PALM DR" intnum="68" />
<marker lat="28.3284516531149" lng="-81.3509919659748" intname="BVL BLVD and FLORIDA PKWY" intnum="56" />
<marker lat="28.3042930186834" lng="-81.3507801103967" intname="SIMPSON and FORTUNE" intnum="22" />
<marker lat="28.3042085048938" lng="-81.3656017639128" intname="FORTUNE and BILL BECK" intnum="143" />
<marker lat="28.3480486260701" lng="-81.3095616714877" intname="BOGGY CREEK RD and SIMPSON" intnum="95" />
<marker lat="28.293093088906" lng="-81.3648380435978" intname="192and BILL BECK BLVD" intnum="62" />
<marker lat="28.2868297083894" lng="-81.3553234773167" intname="192and SIMPSON RD" intnum="43" />
<marker lat="28.2841442175932" lng="-81.351255500726" intname="192and EXIT 244\/SHADY LN" intnum="21" />
<marker lat="28.2634219229984" lng="-81.3311727396271" intname="192and EXIT 242\/FLEA MARKET" intnum="100" />
<marker lat="28.2839355028731" lng="-81.3749438899496" intname="NEPTUNE RD and KINGS HWY" intnum="29" />
<marker lat="28.2461198689411" lng="-81.2438415877889" intname="192and HWY 15 (ASHTON)" intnum="45" />
<marker lat="28.2460085952167" lng="-81.256096401969" intname="192and OLD HICKORY TREE RD" intnum="78" />
<marker lat="28.3081393576769" lng="-81.4078234607332" intname="COLUMBIA and CENTRAL" intnum="136" />
<marker lat="28.1462444872784" lng="-81.4528827808403" intname="CYPRESS and DOVERPLUM" intnum="35" />
<marker lat="28.3148197205975" lng="-81.3429142406951" intname="SIMPSON and N LAKESIDE" intnum="149" />
<marker lat="28.2598139146409" lng="-81.5906110840314" intname="CR 532 and OLD LAKE WILSON RD" intnum="93" />
<marker lat="28.3327811041381" lng="-81.5279061766547" intname="192and CELEBRATION\/WATER MANIA" intnum="112" />
<marker lat="28.2898687293249" lng="-81.4242654140841" intname="THACKER AVE and PATRICK ST" intnum="33" />
<marker lat="28.2935029097443" lng="-81.4242792958612" intname="THACKER AVE and MABBETTE ST" intnum="88" />
<marker lat="28.3383357063235" lng="-81.5060139720772" intname="OSCEOLA PKWY and SERA LAGO" intnum="105" />
<marker lat="28.3406324473595" lng="-81.5155326383116" intname="OSCEOLA PKWY and  417 RAMPS  H and I" intnum="106" />
<marker lat="28.3421666112461" lng="-81.5180588295075" intname="OSCEOLA PKWY and  417 RAMPS  G and J" intnum="107" />
<marker lat="28.3448371147862" lng="-81.5230165511885" intname="OSCEOLA PKWY  and  INTERNATIONAL DRIVE" intnum="108" />
<marker lat="28.332799066287" lng="-81.5208995637706" intname="192and  INTERNATIONAL  DRIVE" intnum="123" />
<marker lat="28.3269587616245" lng="-81.5310852432047" intname="417and  CELEBRATION" intnum="122" />
<marker lat="28.3385500428573" lng="-81.3601900643894" intname="BUENAVENTURA BLVD and BUTTONWOOD" intnum="157" />
<marker lat="28.2351316017073" lng="-81.4873418098833" intname="POINCIANA BLVD and PHS" intnum="150" />
<marker lat="28.2489394455452" lng="-81.3098322898311" intname="192and BROWN CHAPEL\/NEPUNE RD." intnum="46" />
<marker lat="28.2598040737566" lng="-81.5434558517046" intname="17-92 and532" intnum="170" />
<marker lat="28.3004348651846" lng="-81.3747169899268" intname="192and FORTUNE" intnum="164" />
<marker lat="28.3326939516748" lng="-81.5871762604562" intname="192and OLD LAKE WILSON RD." intnum="163" />
<marker lat="28.278796585314" lng="-81.3432363110545" intname="192and PARTIN SETTLEMENT" intnum="159" />
<marker lat="28.3257787084965" lng="-81.4707053376495" intname="192and SEVEN DWARFES LN" intnum="167" />
<marker lat="28.3080193017473" lng="-81.4449842119633" intname="COLUMBIA and HOAGLAND" intnum="161" />
<marker lat="28.2564999919022" lng="-81.4625400139137" intname="17-92 and Ham Brown Rd." intnum="200" />
<marker lat="28.3328000042264" lng="-81.5312199963004" intname="192and Arabian Nights" intnum="178" />
<marker lat="28.3417722740907" lng="-81.4037244176338" intname="441and PERFORMANCE ARTS CHARTER" intnum="205" />
<marker lat="28.1977890379436" lng="-81.2928244464046" intname="CANOE CREEK and OLD CANOE CREEK" intnum="152" />
<marker lat="28.3244888877882" lng="-81.5328831427673" intname="CELEBRATION BLVD and CELEBRATION AVE" intnum="162" />
<marker lat="28.3302346540938" lng="-81.5300914839707" intname="CELEBRATION PL and CELEBRATION AVE" intnum="186" />
<marker lat="28.3299524579882" lng="-81.5338110824749" intname="CELEBRATION PL and CELEBRATION PL" intnum="160" />
<marker lat="28.3016514315965" lng="-81.565683000991" intname="CELEBRATION BLVD and WORLD DR" intnum="177" />
<marker lat="28.337237581213" lng="-81.4196579113778" intname="JOHN YOUNG PKWY and CENTERVIEW" intnum="166" />
<marker lat="28.1573844810461" lng="-81.470844646209" intname="MARIGOLD and KOA" intnum="188" />
<marker lat="28.2488574805914" lng="-81.3175878031225" intname="NEPTUNE and OLD CANOE CREEK RD" intnum="60" />
<marker lat="28.3426475868813" lng="-81.351397290309" intname="OSCEOLA PKWY and WATERS EDGE" intnum="165" />
<marker lat="28.1543146889644" lng="-81.4399953701278" intname="PLEASANT HILL RD and POINCIANA" intnum="156" />
<marker lat="28.2252989839158" lng="-81.4844106612469" intname="POINCIANA and CRESENT LAKES LN" intnum="203" />
<marker lat="28.3470611365663" lng="-81.4196559890548" intname="JOHN YOUNG PWY and GREENWALD" intnum="201" />
<marker lat="28.33170205741" lng="-81.4163163764144" intname="JOHN YOUNG PWY and REGATTA BAY" intnum="179" />
<marker lat="28.3418636291364" lng="-81.4310155467923" intname="OSCEOLA PKWY and DYER" intnum="184" />
<marker lat="28.3253403555657" lng="-81.4367086382622" intname="DYER BLVD and CARROLL" intnum="185" />
<marker lat="28.3306890234525" lng="-81.4736894177139" intname="192and SUPER TARGET" intnum="204" />
<marker lat="28.342198056586" lng="-81.4243697730265" intname="OSCEOLA PKWY and THACKER" intnum="208" />
<marker lat="28.300883833928" lng="-81.4118951586705" intname="OAK ST and ROSE AVE" intnum="181" />
<marker lat="28.2618216664165" lng="-81.434128336933" intname="17-92 and THE OAKS" intnum="180" />
<marker lat="28.2548162336627" lng="-81.3186216728856" intname="COMMERCE CENTER DR and192" intnum="190" />
<marker lat="28.2522793679008" lng="-81.3148849979305" intname="KISSIMMEE PARK RD and192" intnum="191" />
<marker lat="28.2460922479144" lng="-81.3013531625099" intname="BUDINGER AVE and 13th (192)" intnum="192" />
<marker lat="28.2459760406012" lng="-81.2969670280311" intname="TENNESSEE AVE and 13th (192)" intnum="193" />
<marker lat="28.2459716626456" lng="-81.2925034324195" intname="VERMONT AVE and 13th (192)" intnum="194" />
<marker lat="28.2459439190832" lng="-81.2835703194064" intname="NEW YORK AVE and 13th (192)" intnum="195" />
<marker lat="28.2459310615973" lng="-81.2767582460252" intname="MICHIGAN AVE and 13th (192)" intnum="196" />
<marker lat="28.2459331581991" lng="-81.2722892296378" intname="DELAWARE AVE and 13th (192)" intnum="197" />
<marker lat="28.2476186017618" lng="-81.3073121359531" intname="Westgate and 13th (192) Entrance" intnum="198" />
<marker lat="28.267460381488" lng="-81.2416686403281" intname="HWY 15 and RUMMEL RD" intnum="206" />
<marker lat="28.1832095933563" lng="-81.4399341313035" intname="PLEASANT HILL and BELLALOGO ACAD" intnum="219" />
<marker lat="28.1448477078059" lng="-81.0762451548398" intname="192and 441 (HOLOPAW)" intnum="30" />
<marker lat="27.699758816864" lng="-80.9043691068766" intname="441and 60 (YEEHAW JCT)" intnum="31" />
<marker lat="28.1917789670341" lng="-81.1546777635776" intname="192and HARMONY HIGH SCHOOL" intnum="207" />
<marker lat="28.3481550332038" lng="-81.2319906776713" intname="BOGGY CREEK and HWY 15" intnum="218" />
<marker lat="28.3250549011806" lng="-81.2335478114314" intname="HWY 15 and NCS SOUTH" intnum="217" />
<marker lat="28.3042996074716" lng="-81.3552406360751" intname="BOGGY CREEK RD and S LAKESIDE" intnum="215" />
<marker lat="28.274312869462" lng="-81.4365373072664" intname="CLAY and HOAGLAND" intnum="216" />
<marker lat="28.2971965124072" lng="-81.4160379058379" intname="JOHN YOUNG PKWY and MLK" intnum="220" />
<marker lat="28.2952626921435" lng="-81.6026724366533" intname="429and SINCLAIR RD" intnum="221" />
<marker lat="28.2788237335921" lng="-81.3183288268991" intname="PARTIN SETTLEMENT and LAKESHORE" intnum="226" />
<marker lat="28.2949325205642" lng="-81.4005689632464" intname="SILAS BLVD and NEPTUNE RD" intnum="223" />
<marker lat="28.222811510961" lng="-81.3163588433993" intname="KISSIMMEE PARK and CANOE CREEK" intnum="229" />
<marker lat="28.304194534804" lng="-81.3709557867353" intname="SHAKERAG and BOGGY CREEK" intnum="230" />
<marker lat="28.3038105308732" lng="-81.4774956959969" intname="POINCIANA BLVD and OREN BROWN RD" intnum="239" />
<marker lat="28.1985936580687" lng="-81.4399388145478" intname="PLEASANT HILL and REAVES RD" intnum="244" />
<marker lat="28.3246725702974" lng="-81.4261498682958" intname="THACKER and CARROLL" intnum="243" />
<marker lat="28.3330762350529" lng="-81.4336783744738" intname="FLORA and DYER" intnum="242" />
<marker lat="28.3045120995409" lng="-81.4315455448191" intname="VINE and ORANGE" intnum="240" />
<marker lat="28.2606472842936" lng="-81.61180775198" intname="I4 and532" intnum="241" />
<marker lat="28.1622284218247" lng="-81.440030590836" intname="PLEASANT HILL and LIBERTY HS" intnum="245" />
<marker lat="28.3107628478804" lng="-81.481281950169" intname="POINCIANA BLVD and FIRE STATION #42" intnum="261" />
<marker lat="28.1584458795666" lng="-81.4400009477371" intname="PLEASANT HILL RD and LOWE'S" intnum="264" />
<marker lat="28.2280584673463" lng="-81.3176521404517" intname="OLD CANOE CREEK RD and NEW NOLTE RD" intnum="266" />
<marker lat="28.278563963249" lng="-81.3633274756821" intname="NEPTUNE RD and PARTIN SETTLEMENT RD" intnum="267" />
<marker lat="28.3131619123554" lng="-81.3538050352845" intname="LAKESIDE BLVD and WESTLAKE BLVD" intnum="268" />
<marker lat="28.2343173900338" lng="-81.3176931426381" intname="OLD CANOE CREEK and OCRD" intnum="269" />
<marker lat="28.2454547169745" lng="-81.3177835913419" intname="OLD CANOE CREEK and LEXINGTON BLVD" intnum="270" />
<marker lat="28.3370185987685" lng="-81.3900201653652" intname="MILL RUN and MICHIGAN" intnum="271" />
<marker lat="28.2260897838633" lng="-81.4389783744979" intname="PLEASANT HILL and BRIGHTON LAKES" intnum="272" />
<marker lat="28.2971693952886" lng="-81.4242674335848" intname="MLK and THACKER AVE" intnum="273" />
<marker lat="28.2423903592688" lng="-81.2925887066204" intname="17TH and CANOE CREEK\/VERMONT" intnum="274" />
<marker lat="28.1457279612751" lng="-81.4659569181802" intname="CYPRESS PKWY and CYPRESS BRANCH RD" intnum="276" />
<marker lat="28.3405997933453" lng="-81.4119706096182" intname="OSCEOLA PKWY and CENTERVIEW" intnum="280" />
<marker lat="28.2201744658466" lng="-81.3171361514834" intname="KISSIMMEE PARK and TURNPIKE" intnum="289" />
<marker lat="28.3377194046599" lng="-81.3970838393156" intname="OSCEOLA PKWY and OLD DIXIE HWY" intnum="292" />
<marker lat="28.2497978689437" lng="-81.2438371670529" intname="HWY 15 and 10TH ST" intnum="295" />
<marker lat="28.2296017790668" lng="-81.487372983134" intname="POINCIANA BLVD and EAGLES TRAIL" intnum="296" />
<marker lat="28.3335808621375" lng="-81.2786971908568" intname="BOGGY CREEK RD and TURNBERRY BLVD" intnum="297" />
<marker lat="28.2777047988691" lng="-81.4176171043781" intname="JOHN YOUNG PKWY and OSCEOLA PK \/ HACIENDA CIR" intnum="298" />
<marker lat="28.2241235776812" lng="-81.2930560074821" intname="NEW NOLTE and CANOE CREEK" intnum="308" />
<marker lat="28.3421336875988" lng="-81.416338311348" intname="OSCEOLA PKWY and GREENWALD" intnum="311" />
<marker lat="28.2815200798002" lng="-81.3472295129375" intname="192and ACADEMY DR\/PARTIN VILLAGE" intnum="321" />
<marker lat="28.2230590566651" lng="-81.276643820545" intname="NOLTE RD and MICHIGAN AVE" intnum="322" />
<marker lat="28.2240883033852" lng="-81.2436826976525" intname="NOLTE RD and HICKORY TREE RD" intnum="323" />
<marker lat="28.3033184051515" lng="-81.5896712952552" intname="OLD LAKE WILSON RD and SAND HILL RD" intnum="324" />
<marker lat="28.2959529620666" lng="-81.5907216075905" intname="OLD LAKE WILSON RD and SINCLAIR RD" intnum="325" />
<marker lat="28.3299896736571" lng="-81.2297910237461" intname="HWY 15 and NCS NORTH" intnum="326" />
<marker lat="28.2991798756945" lng="-81.2390332500749" intname="NARCOOSSEE and FIRE STATION 51\/YUKON ST" intnum="327" />
<marker lat="28.1466707202282" lng="-81.443745177614" intname="PLEASANT HILL\/CYPRESS PKWY and OLD PLEASANT HIL" intnum="328" />
<marker lat="28.3442670889517" lng="-81.3302232884956" intname="OSCEOLA PKWY and HERITAGE LAKES BLVD" intnum="331" />
<marker lat="28.3455726813762" lng="-81.334071557597" intname="OSCEOLA PKWY and ANDOVER" intnum="332" />
</markers>	
