<markers>
<marker lat="28.2936888221462" lng="-82.7029085115609" intname="Embassy Blvd  and  Shoppers Wy" intnum="6606" />
<marker lat="28.2938305297858" lng="-82.7090806166363" intname="Us 19  and  Embassy Blvd" intnum="9412" />
<marker lat="28.2321860152722" lng="-82.7298439377188" intname="Us 19  and  Marine Pkwy" intnum="5025" />
<marker lat="28.2243694726379" lng="-82.7336972832731" intname="Us 19  and  Trouble Creek Rd (CR 518)" intnum="4500" />
<marker lat="28.2244052836389" lng="-82.7231643634421" intname="Trouble Creek Rd (CR 518)  and  Grand Blvd (CR 595)" intnum="5511" />
<marker lat="28.2343495582006" lng="-82.723302635729" intname="Grand Blvd (CR 595)  and  Marine Pkwy" intnum="5144" />
<marker lat="28.2294413727309" lng="-82.7311531187253" intname="Us 19  and  Floramar Ter" intnum="4830" />
<marker lat="28.1775512213525" lng="-82.6650190410425" intname="Little Rd (CR 1)  and  Trinity Blvd" intnum="1242" />
<marker lat="28.2804986836842" lng="-82.715580288187" intname="Ridge Rd (CR524)  and  Leo Kidd Ave" intnum="6000" />
<marker lat="28.2105080662992" lng="-82.4352947963353" intname="Collier Pkwy  and  Parkway Blvd" intnum="3700" />
<marker lat="28.1712463462823" lng="-82.3535540273959" intname="CR 581  and  County Line Rd" intnum="1000" />
<marker lat="28.2700182843106" lng="-82.6367075916472" intname="Decubellis Rd  and  River Ridge Blvd" intnum="10744" />
<marker lat="28.3897212585666" lng="-82.6578821091766" intname="Little Rd (CR 1)  and  Denton Ave" intnum="16000" />
<marker lat="28.375128899404" lng="-82.6578795789525" intname="Little Rd (CR 1)  and  New York Ave" intnum="15000" />
<marker lat="28.2804771616536" lng="-82.6723186113403" intname="Ridge Rd (CR 524)  and  Broad St" intnum="8620" />
<marker lat="28.1943277689879" lng="-82.3838440161032" intname="SR 56  and  I-75 (North)" intnum="26140" />
<marker lat="28.194374529405" lng="-82.3842220238885" intname="SR 56  and  I-75 (South)" intnum="26045" />
<marker lat="28.399577104492" lng="-82.6599457828854" intname="Us 19  and  Little Rd" intnum="16644" />
<marker lat="28.3640534131663" lng="-82.6910272816452" intname="Hudson Ave  and  Fivay Rd" intnum="7500" />
<marker lat="28.3312706819312" lng="-82.6910458924328" intname="SR 52  and  Zimmerman Rd" intnum="7451" />
<marker lat="28.3166194952035" lng="-82.6991649882862" intname="Us 19  and  Ranch Rd" intnum="1095" />
<marker lat="28.2267102840755" lng="-82.4577755332833" intname="US 41  and  Hale Rd" intnum="4735" />
<marker lat="28.375106120851" lng="-82.6830130030166" intname="Us 19  and  New York Ave" intnum="1495" />
<marker lat="28.389646221476" lng="-82.6691922178016" intname="Us 19  and  Denton Ave" intnum="1600" />
<marker lat="28.3641244472582" lng="-82.6931526847164" intname="Us 19  and  Hudson Ave" intnum="1423" />
<marker lat="28.3593529664078" lng="-82.666466466954" intname="Little Rd (CR 1)  and  Hudson Ave" intnum="1390" />
<marker lat="28.3605654103303" lng="-82.6496786593024" intname="Hudson Ave  and  Hicks Rd" intnum="9953" />
<marker lat="28.3488725671134" lng="-82.6770514397381" intname="Fivey Rd  and  Clayton Ave" intnum="1320" />
<marker lat="28.3310850220651" lng="-82.6665152823371" intname="SR 52  and  Little Rd (CR 1)" intnum="9000" />
<marker lat="28.3311469937907" lng="-82.6579259239915" intname="SR 52  and  Chicago Ave" intnum="9500" />
<marker lat="28.3312934753414" lng="-82.6891220476796" intname="SR 52  and  Majestic Blvd" intnum="7733" />
<marker lat="28.3313011869238" lng="-82.6992292956932" intname="Us 19  and  SR 52" intnum="1200" />
<marker lat="28.3384356674231" lng="-82.699209462635" intname="Us 19  and  Beacon Woods Dr" intnum="1244" />
<marker lat="28.3310366586284" lng="-82.6775908285755" intname="SR 52  and  La Madera Blvd" intnum="8305" />
<marker lat="28.3348824739854" lng="-82.6023632481068" intname="SR 52  and  Moon Lake Rd (CR 587)" intnum="1287" />
<marker lat="28.3080087130424" lng="-82.6664732568496" intname="Little Rd (CR 1)  and  Jasmine Blvd" intnum="1035" />
<marker lat="28.3143958034475" lng="-82.6663181511438" intname="Little Rd (CR 1)  and  Timber Oaks Ave" intnum="1082" />
<marker lat="28.3185954957939" lng="-82.6664095034261" intname="Little Rd (CR 1)  and  Star Trl" intnum="1111" />
<marker lat="28.3000217228" lng="-82.6703237628814" intname="Little Rd (CR 1)  and  Fox Hollow Dr" intnum="9833" />
<marker lat="28.291651446969" lng="-82.6760201923987" intname="Little Rd (CR 1)  and  Embassy Blvd" intnum="9235" />
<marker lat="28.3098498715346" lng="-82.6997660579799" intname="Us 19  and  Jasmine Blvd" intnum="1051" />
<marker lat="28.3023609530497" lng="-82.6958087383492" intname="Regency Park Blvd  and  Fox Hollow Dr" intnum="9955" />
<marker lat="28.3062589934594" lng="-82.7016323992151" intname="Us 19  and  Regency Park Blvd (CR 77)" intnum="1025" />
<marker lat="28.3020670629225" lng="-82.7041802631242" intname="Us 19  and  Fox Hollow Dr" intnum="1000" />
<marker lat="28.2976678872471" lng="-82.7068395914955" intname="Us 19  and  Scenic Dr" intnum="9700" />
<marker lat="28.2707083406188" lng="-82.628133397506" intname="Decubellis Rd  and  Town Center Rd" intnum="1114" />
<marker lat="28.2965404263834" lng="-82.6184573840572" intname="Moon Lake Rd (CR 587)  and  Banbury Ave" intnum="9604" />
<marker lat="28.2680568521743" lng="-82.6743938513105" intname="Little Rd (CR 1)  and  Citizens Dr" intnum="7624" />
<marker lat="28.2664015234232" lng="-82.674383330935" intname="Little Rd (CR 1)  and  Government Dr" intnum="7523" />
<marker lat="28.2732237532034" lng="-82.6255453040596" intname="Ridge Rd (CR 524) and  Decubellis Rd" intnum="1144" />
<marker lat="28.2369812057601" lng="-82.6705773376451" intname="Little Rd (CR 10)  and  River Crossing Blvd" intnum="5377" />
<marker lat="28.2410800237379" lng="-82.6743406688867" intname="Little Rd (CR 1)  and  Plathe Rd" intnum="5631" />
<marker lat="28.2344819511521" lng="-82.666818321552" intname="Little Rd (CR 1)  and  Rancho Del Rio Dr" intnum="5200" />
<marker lat="28.2275257037369" lng="-82.6660055293138" intname="Little Rd (CR 1)  and  Heritage Lake Blvd" intnum="4718" />
<marker lat="28.2169879947657" lng="-82.6661297355979" intname="Little Rd (CR 1)  and  Old CR 54" intnum="4002" />
<marker lat="28.2061254873652" lng="-82.6660195540214" intname="SR 54  and  Little Rd (CR 1)" intnum="9001" />
<marker lat="28.1868527132548" lng="-82.6665849427057" intname="Little Rd (CR 1)  and  Mitchell Blvd" intnum="1912" />
<marker lat="28.2731351841229" lng="-82.6989288233202" intname="Regency Park Blvd  and  Orchid Lake Rd" intnum="8001" />
<marker lat="28.258673790742" lng="-82.6989895858427" intname="Massachusetts Ave (CR 587)  and  Rowan Rd (CR 77)" intnum="7000" />
<marker lat="28.1980019815778" lng="-82.7398236121209" intname="Us 19  and  Sunray Dr" intnum="2650" />
<marker lat="28.2169815092542" lng="-82.7374279493863" intname="Us 19  and  SR 54" intnum="4000" />
<marker lat="28.2096380390434" lng="-82.7395879554085" intname="Us 19  and  Moog Rd" intnum="3500" />
<marker lat="28.2171050672892" lng="-82.7229750571695" intname="SR 54  and  Grand Blvd (SR 595)" intnum="5517" />
<marker lat="28.2170670816466" lng="-82.7152897799873" intname="SR 54  and  Madison St" intnum="5953" />
<marker lat="28.2098184162904" lng="-82.7235998329914" intname="Grand Blvd (CR 595)  and  Moog Rd" intnum="3500" />
<marker lat="28.2425152491846" lng="-82.7154915118234" intname="Madison St  and  Louisiana Ave (NPR)" intnum="5727" />
<marker lat="28.2388705506267" lng="-82.7197710002556" intname="Grand Blvd (CR 595)  and  Gulf Dr" intnum="5500" />
<marker lat="28.2316524556453" lng="-82.7154636834091" intname="Madison St  and  Cecelia Dr" intnum="5000" />
<marker lat="28.224376362869" lng="-82.715326855011" intname="Trouble Creek Rd (CR 518)  and  Madison St" intnum="5953" />
<marker lat="28.2740863937129" lng="-82.7219503478509" intname="Us 19  and  Grand Blvd (CR 595)" intnum="8030" />
<marker lat="28.2188930014462" lng="-82.4584404675531" intname="US 41  and  Bell Lake Rd" intnum="4218" />
<marker lat="28.4339581846594" lng="-82.6398321698708" intname="Us 19  and  County Line Rd (CR 578)" intnum="18955" />
<marker lat="28.4338728021825" lng="-82.5487497103946" intname="County Line Rd  and  Shady Hills Rd" intnum="16000" />
<marker lat="28.3252979382761" lng="-82.3245300956923" intname="SR 52  and  I-75" intnum="29724" />
<marker lat="28.2368452772888" lng="-82.3545439614203" intname="SR 54  and  I-75" intnum="27837" />
<marker lat="28.2377464763738" lng="-82.3665111014798" intname="SR 54  and  Old Pasco Rd" intnum="27200" />
<marker lat="28.2190029482056" lng="-82.2462162216627" intname="SR 54  and  Morris Bridge Rd (CR 579)" intnum="34450" />
<marker lat="28.2300467227662" lng="-82.2135495626257" intname="SR 54  and  Dean Dairy Rd" intnum="36501" />
<marker lat="28.2081874103779" lng="-82.1853463202366" intname="Gall Blvd (US 301)  and  Chancey Rd" intnum="3503" />
<marker lat="28.2069275916955" lng="-82.1749701153837" intname="SR 39 ( Paul S Buchman Hwy)  and  Chancey Rd (CR 535)" intnum="3500" />
<marker lat="28.251785238206" lng="-82.18004736443" intname="CR 54  and  12th St (Wire Rd)" intnum="38501" />
<marker lat="28.232993367435" lng="-82.1828141957617" intname="SR 54  and  6th St" intnum="38316" />
<marker lat="28.2397447358934" lng="-82.1851430512899" intname="Gall Blvd (US 301)  and  12th Ave" intnum="5647" />
<marker lat="28.229997217985" lng="-82.1801008467991" intname="Gall Blvd (US 301)  and  South Ave" intnum="4954" />
<marker lat="28.2334407058069" lng="-82.181751269679" intname="Gall Blvd (US 301)  and  SR 54 (5th Ave)" intnum="5225" />
<marker lat="28.2445847307956" lng="-82.1892813938809" intname="Gall Blvd (US 301)  and  Geiger Rd" intnum="6000" />
<marker lat="28.1975693678852" lng="-82.4342065832406" intname="Collier Pkwy  and  Weeks Blvd" intnum="2802" />
<marker lat="28.2502034878265" lng="-82.7195664802806" intname="Main St (NPR)  and  Grand Blvd (CR 595)" intnum="5726" />
<marker lat="28.2501377463725" lng="-82.7209512255584" intname="Main St (NPR)  and  Bank St" intnum="5637" />
<marker lat="28.2501017469071" lng="-82.7277449023858" intname="Us 19  and  Main St (NPR)" intnum="6311" />
<marker lat="28.2501787561852" lng="-82.7242495073701" intname="Main St (NPR)  and  River Rd" intnum="5437" />
<marker lat="28.2502833964586" lng="-82.7154774546898" intname="Main St (NPR)  and  Madison St" intnum="5954" />
<marker lat="28.2586599587819" lng="-82.7072912930114" intname="Massachusetts Ave (CR 587)  and  Congress St" intnum="6500" />
<marker lat="28.2388003983973" lng="-82.6938362479632" intname="Rowan Rd (CR 77)  and  Plathe Rd" intnum="5500" />
<marker lat="28.1953827488571" lng="-82.7235875630631" intname="Grand Blvd (CR 595)  and  Perrine Ranch Rd" intnum="2500" />
<marker lat="28.1824615771565" lng="-82.7402785520575" intname="Us 19  and  US Alt 19" intnum="1611" />
<marker lat="28.1751757387404" lng="-82.7478195972491" intname="US Alt 19  and  Holiday Lake Dr" intnum="1114" />
<marker lat="28.1771105120267" lng="-82.7405677112856" intname="Us 19  and  Flora Ave" intnum="1231" />
<marker lat="28.187879082352" lng="-82.7400363930194" intname="Us 19  and  Mile Stretch Dr (CR 595)" intnum="2000" />
<marker lat="28.1952125114717" lng="-82.7398044015725" intname="Us 19  and  Darlington Rd" intnum="2500" />
<marker lat="28.2481960303689" lng="-82.1893394086298" intname="Gall Blvd (US 301)  and  Fort King Rd" intnum="6226" />
<marker lat="28.2517588684879" lng="-82.1913590951197" intname="Fort King Rd  and  Eiland Blvd" intnum="6454" />
<marker lat="28.2518088970747" lng="-82.1882615351193" intname="Gall Blvd (US 301)  and  CR 54" intnum="6500" />
<marker lat="28.2591035115255" lng="-82.1882551289476" intname="Gall Blvd (US 301)  and  Daughtery Rd" intnum="7001" />
<marker lat="28.2622869350632" lng="-82.1881871390809" intname="Gall Blvd (US 301)  and  Townview Ave" intnum="7340" />
<marker lat="28.2518923559102" lng="-82.146814545321" intname="CR 54  and  Chancey Rd (CR 535)" intnum="40403" />
<marker lat="28.3285139668882" lng="-82.2041564053671" intname="Fort King Rd  and  Clinton Ave" intnum="11700" />
<marker lat="28.3284463914916" lng="-82.1875200322907" intname="US 301  and  Clinton Ave (CR 52A)" intnum="11729" />
<marker lat="28.3430132466787" lng="-82.187652670316" intname="US 301  and  Morningside Dr" intnum="12722" />
<marker lat="28.3548760081773" lng="-82.1875660638369" intname="US 301  and  US 98 (Dade City)" intnum="13534" />
<marker lat="28.3645385314821" lng="-82.1891286509066" intname="US 301 (7th St)  and  SR 52 (meridian Ave)" intnum="14210" />
<marker lat="28.3637337165709" lng="-82.1891066240389" intname="US 301 (7th St)  and  Pasco Ave" intnum="14134" />
<marker lat="28.3629109961596" lng="-82.1891051656754" intname="US 301 (7th St)  and  Church Ave" intnum="14100" />
<marker lat="28.3687993405994" lng="-82.1890950027488" intname="US 301 (7th St)  and  Martin Luther King Blvd" intnum="14500" />
<marker lat="28.3687758484652" lng="-82.1861799145224" intname="US 98  and  Martin Luther King Blvd" intnum="14500" />
<marker lat="28.3645656075158" lng="-82.195765081889" intname="Meridian Ave (SR 52)  and  14th St" intnum="37500" />
<marker lat="28.3645259790033" lng="-82.2040346351209" intname="SR 52 (Meridian Ave)  and  21st St" intnum="37000" />
<marker lat="28.3760464597951" lng="-82.2040568700719" intname="Lock St  and  21st St" intnum="37000" />
<marker lat="28.3760720105765" lng="-82.1914206224363" intname="US 301 (7th St)  and  Lock St" intnum="14500" />
<marker lat="28.3360600369798" lng="-82.2371769546335" intname="SR 52  and  Happy Hill Rd (CR 579)" intnum="35000" />
<marker lat="28.1938274196027" lng="-82.5925043988025" intname="SR 54  and  Gunn Hwy (CR 587)" intnum="13501" />
<marker lat="28.3303848895382" lng="-82.649945150906" intname="SR 52  and  Hicks Rd" intnum="9955" />
<marker lat="28.2584167907568" lng="-82.6751591429566" intname="Little Rd (CR 1)  and  Massachusetts Ave (CR 587)" intnum="7001" />
<marker lat="28.249797205387" lng="-82.7072313442669" intname="Congress St  and  Main St (NPR)" intnum="6240" />
<marker lat="28.2417741661933" lng="-82.7277110842707" intname="Us 19  and  Cross Bayou Blvd" intnum="5647" />
<marker lat="28.2388447863555" lng="-82.7276911062712" intname="Us 19  and  Gulf Dr" intnum="5500" />
<marker lat="28.2347657369972" lng="-82.6717559822769" intname="Trouble Creek Rd (CR 518)  and  Cecelia Dr" intnum="8626" />
<marker lat="28.2243288610816" lng="-82.7071607563189" intname="Trouble Creek Rd (CR 518)  and  Thys Rd" intnum="6500" />
<marker lat="28.4338156366741" lng="-82.4844281680001" intname="County Line Rd  and  Suncoast Pkwy (Toll 589) (North)" intnum="20025" />
<marker lat="28.4338106585679" lng="-82.4858250366117" intname="County Line Rd  and  Suncoast Pkwy (Toll 589) (South)" intnum="20024" />
<marker lat="28.1721417873889" lng="-82.4743987152584" intname="Dale Mabry Hwy  and  County Line Rd" intnum="1004" />
<marker lat="28.3368441243071" lng="-82.6246245172831" intname="SR 52  and  Paradise Pointe Wy" intnum="11510" />
<marker lat="28.3302914759118" lng="-82.5519004549536" intname="SR 52  and  Suncoast Pkwy (Toll 589) (North)" intnum="15919" />
<marker lat="28.3308880983171" lng="-82.5530250853094" intname="SR 52  and  Suncoast Pkwy (Toll 589) (South)" intnum="15918" />
<marker lat="28.2362357741846" lng="-82.3497047304547" intname="SR 54  and  CR 581 (Bruce B Downs Blvd)" intnum="28205" />
<marker lat="28.216340800005" lng="-82.6834347632041" intname="SR 54  and  Old CR 54" intnum="7926" />
<marker lat="28.1881221436933" lng="-82.400753107895" intname="SR 54  and  Wesley Chapel Blvd" intnum="25138" />
<marker lat="28.1893813870525" lng="-82.543724565866" intname="SR 54  and  Suncoast Pkwy (SR 589) (North)" intnum="16523" />
<marker lat="28.1897864137665" lng="-82.5451988877747" intname="SR 54  and  Suncoast Pkwy (SR 589) (South)" intnum="16524" />
<marker lat="28.1856098514381" lng="-82.3536419229336" intname="SR 56  and  CR 581" intnum="28000" />
<marker lat="28.2903200023403" lng="-82.7112711236778" intname="Us 19  and  Holiday Hills Blvd" intnum="9148" />
<marker lat="28.2936656924352" lng="-82.6957440235513" intname="Regency Park Blvd  and  Embassy Blvd" intnum="9404" />
<marker lat="28.2805847107498" lng="-82.7172672168427" intname="Us 19  and  Ridge Rd (CR 524)" intnum="8500" />
<marker lat="28.280474443579" lng="-82.7070947820775" intname="Ridge Rd (CR 524)  and  Congress St" intnum="6402" />
<marker lat="28.2804788858957" lng="-82.6971337887521" intname="Ridge Rd (CR 524)  and  Regency Park Blvd" intnum="7109" />
<marker lat="28.2805426001837" lng="-82.6826802793758" intname="Ridge Rd (CR 524)  and  Galen Wilson Blvd" intnum="8000" />
<marker lat="28.2805102145932" lng="-82.6909677533532" intname="Ridge Rd (CR 524)  and  Lemon Rd" intnum="7501" />
<marker lat="28.2804457041363" lng="-82.675894266686" intname="Little Rd (CR 1)  and  Ridge Rd (CR 524)" intnum="8501" />
<marker lat="28.2805888186448" lng="-82.6657234143037" intname="Ridge Rd (CR 524)  and  Bass Lake Dr" intnum="9018" />
<marker lat="28.277603534218" lng="-82.6401364552138" intname="Ridge Rd (CR 524)  and  Kitty Hawk Dr" intnum="1054" />
<marker lat="28.2765169728072" lng="-82.6357534347055" intname="Ridge Rd (CR 524)  and  River Ridge Blvd" intnum="1083" />
<marker lat="28.2496998377954" lng="-82.698755664317" intname="Rowan Rd (CR 77)  and  Main St" intnum="6234" />
<marker lat="28.231198476933" lng="-82.6912306815823" intname="Rowan Rd (CR 77)  and  Cecelia Dr" intnum="4943" />
<marker lat="28.225930774193" lng="-82.690828470078" intname="Rowan Rd (CR 77)  and  Trouble Creek Rd (CR 518)" intnum="4604" />
<marker lat="28.217127001354" lng="-82.6927573931127" intname="SR 54  and  Rowan Rd\/Seven Springs Blvd (CR 77)" intnum="7342" />
<marker lat="28.2074589043112" lng="-82.6942758320302" intname="Seven Springs Blvd (CR 77)  and  Jenner Ave" intnum="3318" />
<marker lat="28.2056454669465" lng="-82.6943914012306" intname="Seven Springs Blvd (CR 77)  and  Lassen Ave" intnum="3210" />
<marker lat="28.1944476416004" lng="-82.6991068908586" intname="Seven Springs Blvd (CR 77)  and  Perrine Ranch Rd" intnum="2422" />
<marker lat="28.1807381260072" lng="-82.6981276351836" intname="Seven Springs Blvd (CR 77)  and  Mitchell Blvd" intnum="1500" />
<marker lat="28.3304480545451" lng="-82.5419718771671" intname="SR 52  and  Shady Hills Rd" intnum="1654" />
<marker lat="28.3208798249236" lng="-82.5028031979268" intname="US 41  and  SR 52" intnum="1124" />
<marker lat="28.1920067792869" lng="-82.4661275842182" intname="US 41  and  SR 54" intnum="2344" />
<marker lat="28.186358190523" lng="-82.4670865472114" intname="US 41  and  Dale Mabry Hwy (SR 597)" intnum="1936" />
<marker lat="28.1857629543678" lng="-82.4379961045293" intname="SR 54  and  Collier Pkwy" intnum="2284" />
</markers>	
