<markers>
<marker lat="30.4583987582996" lng="-87.1816889921703" intname="Summit Blvd and Jerry L Maygarden Rd" intnum="" />
<marker lat="30.4060037071718" lng="-87.2377188952164" intname="Main St and W Main St" intnum="" />
<marker lat="30.4075916504935" lng="-87.2352859089546" intname="S I St and Government St" intnum="" />
<marker lat="30.4053170998725" lng="-87.2264381440332" intname="S A St and Main St" intnum="" />
<marker lat="30.405515127908" lng="-87.2309472255039" intname="S E St and W Main St" intnum="" />
<marker lat="30.4068538381018" lng="-87.2175928633984" intname="Main St and S Spring St" intnum="" />
<marker lat="30.4076190378769" lng="-87.2141375958535" intname="S Palafox St and E Main St" intnum="" />
<marker lat="30.4085974403064" lng="-87.2179616924218" intname="S Spring St and W Government St" intnum="" />
<marker lat="30.4089967303264" lng="-87.2159854601722" intname="S Baylen St and W Government St" intnum="" />
<marker lat="30.4139663953072" lng="-87.2171505033836" intname="N Baylen St and W Chase St" intnum="" />
<marker lat="30.4166448208086" lng="-87.2162322139875" intname="E Wright St and N Palafox St" intnum="" />
<marker lat="30.4285716218872" lng="-87.2296064574173" intname="W Moreno St and N E St" intnum="" />
<marker lat="30.430613156637" lng="-87.2294799684914" intname="N E St and W Avery St" intnum="" />
<marker lat="30.4493434686604" lng="-87.2084261925687" intname="N 12th Ave and Texar Dr" intnum="" />
<marker lat="30.4572178398919" lng="-87.2102955258559" intname="Driftwood Dr and N 12th Ave" intnum="" />
<marker lat="30.4685381124726" lng="-87.2021991511927" intname="N 12th Ave and Summit Blvd" intnum="" />
<marker lat="30.4594186231002" lng="-87.1794994060482" intname="Summit Blvd and Spanish Trl" intnum="" />
<marker lat="30.4830428154046" lng="-87.1694117861881" intname="Langley Ave and Spanish Trl" intnum="" />
<marker lat="30.4773044002942" lng="-87.1975489220989" intname="College Blvd and N 12th Ave" intnum="" />
<marker lat="30.4119864082902" lng="-87.2439677262322" intname="W Navy Blvd and N Q St" intnum="" />
<marker lat="30.4921095817057" lng="-87.1928054032867" intname="N 9th Ave and Mc Allister Ave" intnum="" />
<marker lat="30.4222676599045" lng="-87.2114670422187" intname="E Cervantes St and N Alcaniz St" intnum="" />
<marker lat="30.4584118113725" lng="-87.2234436464887" intname="N Davis Hwy and Woodland Dr" intnum="" />
<marker lat="30.4513715597411" lng="-87.2225388757696" intname="E Fairfield Dr and 295" intnum="" />
<marker lat="30.4519096400394" lng="-87.21869700923" intname="N Davis Hwy and E 36th St" intnum="" />
<marker lat="30.4839178470983" lng="-87.2020263327523" intname="Underwood Ave and N 9th Ave" intnum="" />
<marker lat="30.4208939329973" lng="-87.2468659242039" intname="N T St and W Cervantes St" intnum="" />
<marker lat="30.4747870881978" lng="-87.1992156535173" intname="N 12th Ave and Airport Blvd" intnum="" />
<marker lat="30.4804864527742" lng="-87.2153870385844" intname="Cobblecreek Dr and Airport Blvd" intnum="" />
<marker lat="30.4951040886079" lng="-87.1895659772119" intname="Creighton Rd and N 9th Ave" intnum="" />
<marker lat="30.4335811916902" lng="-87.2201815746872" intname="N Palafox St and W Jordan St" intnum="" />
<marker lat="30.4807458755577" lng="-87.2087127738838" intname="FL-750 and Cordova Commons" intnum="" />
<marker lat="30.4345375075758" lng="-87.2203401405091" intname="E Maxwell St and N Palafox St" intnum="" />
<marker lat="30.4816905873747" lng="-87.2128879041838" intname="Airport Blvd and College Pkwy" intnum="" />
<marker lat="30.4279493320166" lng="-87.2188283204437" intname="E Blount St and N Palafox St" intnum="" />
<marker lat="30.480053305193" lng="-87.2167587773867" intname="Airport Blvd and Creek Station Dr" intnum="" />
<marker lat="30.5044495523044" lng="-87.1838739956633" intname="Beau Terra Ln and N 9th Ave" intnum="" />
<marker lat="30.454529825519" lng="-87.2143341260745" intname="N 9th Ave and E Fairfield Dr" intnum="" />
<marker lat="30.4733699470399" lng="-87.2122164832123" intname="N 9th Ave and Bayou Blvd" intnum="" />
<marker lat="30.4793772712642" lng="-87.2071345686558" intname="Airport Blvd and N 9th Ave" intnum="" />
<marker lat="30.4809830678431" lng="-87.2053903073488" intname="College Blvd and N 9th Ave" intnum="" />
<marker lat="30.4474923642186" lng="-87.2126148910151" intname="N 9th Ave and E Texar Dr" intnum="" />
<marker lat="30.500103389161" lng="-87.1849224793243" intname="Keating Rd and N 9th Ave" intnum="" />
<marker lat="30.4199253755998" lng="-87.2255502601579" intname="N A St and W Cervantes St" intnum="" />
<marker lat="30.4210560779204" lng="-87.2187824891631" intname="N Baylen St and W Cervantes St" intnum="" />
<marker lat="30.4206669180049" lng="-87.2412599274117" intname="N Pace Blvd and W Cervantes St" intnum="" />
<marker lat="30.4171825253207" lng="-87.2057460940812" intname="N 9th Ave and E Gregory St" intnum="" />
<marker lat="30.4207929296423" lng="-87.2200890802678" intname="N Spring St and W Cervantes St" intnum="" />
<marker lat="30.4201452242786" lng="-87.2301066291659" intname="N E St and W Cervantes St" intnum="" />
<marker lat="30.4159943720763" lng="-87.205504895816" intname="E Chase St and N 9th Ave" intnum="" />
<marker lat="30.4217792506694" lng="-87.2144171769525" intname="E Cervantes St and I- 110" intnum="" />
<marker lat="30.4553706239139" lng="-87.1691749898613" intname="Summit Blvd and Scenic Hwy" intnum="" />
<marker lat="30.4230290592677" lng="-87.2071129968273" intname="N 9th Ave and E Cervantes St" intnum="" />
<marker lat="30.4212572531936" lng="-87.2173195169505" intname="N Palafox St and E Cervantes St" intnum="" />
<marker lat="30.4223509127514" lng="-87.2108725566566" intname="N Davis Hwy and E Cervantes St" intnum="" />
<marker lat="30.4800864714903" lng="-87.1630247184107" intname="Scenic Hwy and Langley Ave" intnum="" />
<marker lat="30.4252875288921" lng="-87.1835631578681" intname="Perry Ave and E Cervantes St" intnum="" />
<marker lat="30.4912485351511" lng="-87.1556209455655" intname="Scenic Hwy and Gull Point Rd" intnum="" />
<marker lat="30.4250733524907" lng="-87.1952140970224" intname="N 17th Ave and E Cervantes St" intnum="" />
<marker lat="30.4757358047988" lng="-87.2108757327615" intname="N 9th Ave and Sacred Heart Health" intnum="" />
<marker lat="30.4296685244548" lng="-87.2085983427657" intname="N 9th Ave and E Blount St" intnum="" />
<marker lat="30.4237878859074" lng="-87.2026812248727" intname="N 12th Ave and E Cervantes St" intnum="" />
<marker lat="30.4221311273327" lng="-87.2120414150756" intname="N Alcaniz St and E Cervantes St" intnum="" />
<marker lat="30.4219743042149" lng="-87.2133238818389" intname="N Hayne St and E Cervantes St" intnum="" />
<marker lat="30.4353372105281" lng="-87.2098567816045" intname="N 9th Ave and E Jordan St" intnum="" />
<marker lat="30.4175338073067" lng="-87.2111185981669" intname="E Wright St and Dr Martin Luther King Jr Dr" intnum="" />
<marker lat="30.4347883912765" lng="-87.2132540002585" intname="N Davis Hwy and E Jordan St" intnum="" />
<marker lat="30.4355421310935" lng="-87.2146448983411" intname="E Maxwell St and N Alcaniz St" intnum="" />
<marker lat="30.4290769176021" lng="-87.2121484036359" intname="N Davis Hwy and E Blount St" intnum="" />
<marker lat="30.4288719137569" lng="-87.2133630297592" intname="Dr Martin Luther King Jr Dr and E Blount St" intnum="" />
<marker lat="30.4879373244899" lng="-87.2230390735291" intname="N Davis Hwy and Langley Ave" intnum="" />
<marker lat="30.4035609044474" lng="-87.2422449904253" intname="Barrancas Ave and S Pace Blvd" intnum="" />
<marker lat="30.418677821859" lng="-87.2414144132381" intname="N Pace Blvd and W Jackson St" intnum="" />
<marker lat="30.4654754971467" lng="-87.204006521948" intname="Bayou Blvd and N 12th Ave" intnum="" />
<marker lat="30.4708455220922" lng="-87.2077994335125" intname="Bayou Blvd and Askew Dr" intnum="" />
<marker lat="30.4746040954521" lng="-87.2158976418844" intname="Brent Ln and Bayou Blvd" intnum="" />
<marker lat="30.4178948788524" lng="-87.194650636671" intname="E Gregory St and Bay Front Pkwy" intnum="" />
<marker lat="30.416664572255" lng="-87.1996362820248" intname="Bayfront Pkwy and US Hwy 98" intnum="" />
<marker lat="30.4146956959959" lng="-87.2130300993993" intname="E Chase St and N Tarragona St" intnum="" />
<marker lat="30.4133631991847" lng="-87.212755581597" intname="N Tarragona St and E Garden St" intnum="" />
<marker lat="30.4142657130555" lng="-87.215746637509" intname="W Chase St and N Palafox St" intnum="" />
<marker lat="30.4154599776234" lng="-87.2160021498482" intname="W Gregory St and N Palafox St" intnum="" />
<marker lat="30.4162665742512" lng="-87.2134155241853" intname="N Tarragona St and E Gregory St" intnum="" />
<marker lat="30.4167225245315" lng="-87.2108863134549" intname="E Gregory St and Dr Martin Luther King Jr Dr" intnum="" />
<marker lat="30.4111377352336" lng="-87.2260606677932" intname="W Garden St and N A St" intnum="" />
<marker lat="30.4112999228147" lng="-87.230565316945" intname="S E St and W Garden St" intnum="" />
<marker lat="30.4111730633019" lng="-87.2294513658941" intname="S D St and Barrancas Ave" intnum="" />
<marker lat="30.4117861499713" lng="-87.2417041887408" intname="S Pace Blvd and W Garden St" intnum="" />
<marker lat="30.4122344216179" lng="-87.2508461820934" intname="W Navy Blvd and N W St" intnum="" />
<marker lat="30.4124482989544" lng="-87.2181438392299" intname="N Spring St and W Garden St" intnum="" />
<marker lat="30.4126709800056" lng="-87.2168306371451" intname="N Baylen St and W Garden St" intnum="" />
<marker lat="30.4130936413284" lng="-87.2143139311932" intname="N Jefferson St and E Garden St" intnum="" />
<marker lat="30.4128916645436" lng="-87.2153959296724" intname="N Palafox St and E Garden St" intnum="" />
<marker lat="30.4526448572542" lng="-87.2205168375813" intname="N Davis Hwy and E Fairfield Dr" intnum="" />
<marker lat="30.4952044652103" lng="-87.1931570967769" intname="SR 742/Crieghton Rd and Walmart" intnum="" />
<marker lat="30.4952471434793" lng="-87.196551648312" intname="Tippin Ave and Creighton Rd" intnum="" />
</markers>