<markers>
<marker lat="28.6983402560112" lng="-81.3095362237939" intname="SR 434 and EDGEMON AVE" intnum="4284" />
<marker lat="28.6980072164215" lng="-81.313323986049" intname="SR 434 and SHEOAH BLVD" intnum="4285" />
<marker lat="28.6978082399622" lng="-81.346294340256" intname="SR 434 and CR 427" intnum="784" />
<marker lat="28.6941919099072" lng="-81.4469734445021" intname="HUNT CLUB BLVD and NEEDLES TRL" intnum="1762" />
<marker lat="28.6888570357992" lng="-81.3918459609211" intname="SR 434 and MARKHAM WOODS RD" intnum="4289" />
<marker lat="28.6873272252246" lng="-81.4491078165619" intname="HUNT CLUB BLVD and W WEKIVA TRL" intnum="1414" />
<marker lat="28.6848909790983" lng="-81.3458935547444" intname="CR 427 and DOGTRACK RD" intnum="4005" />
<marker lat="28.6832738074092" lng="-81.3460251947381" intname="LONGWOOD AVE and NORTH ST" intnum="692" />
<marker lat="28.6758409389048" lng="-81.3511771067488" intname="LONGWOOD AVE and PLUMOSA AVE" intnum="1607" />
<marker lat="28.6727304599945" lng="-81.3903159249241" intname="CENTRAL PKWY and DOUGLAS AVE" intnum="984" />
<marker lat="28.6726425508992" lng="-81.3865119166968" intname="CENTRAL PKWY and RAYMOND AVE" intnum="1996" />
<marker lat="28.6692954769443" lng="-81.3838745500125" intname="CENTRAL PKWY and WHOOPING LP" intnum="4032" />
<marker lat="28.6703011778097" lng="-81.208457414588" intname="SR 434 and SR 426" intnum="4307" />
<marker lat="28.6592425393904" lng="-81.1783742311889" intname="CR 419 and LOCKWOOD RD" intnum="7695" />
<marker lat="28.6559832868131" lng="-81.1792141663698" intname="LOCKWOOD BLVD and MITCHELL HAMMOCK RD" intnum="8336" />
<marker lat="28.6557683331732" lng="-81.2081272018715" intname="SR 434 and MITCHELL HAMMOCK RD" intnum="1703" />
<marker lat="28.6528450361552" lng="-81.4437594535722" intname="BEAR LAKE RD and BUNNELL RD" intnum="373" />
<marker lat="28.6528073052177" lng="-81.4355964049434" intname="EDEN PARK AVE and BUNNELL RD" intnum="652" />
<marker lat="28.7866356733227" lng="-81.2802412992637" intname="CR 46A (25TH ST) and HARTWELL AVE" intnum="5090" />
<marker lat="28.7865051810479" lng="-81.3164514589119" intname="25TH ST and UPSALA RD" intnum="3941" />
<marker lat="28.720605356189" lng="-81.3369593257012" intname="LONGWOOD AVE and LONGWOOD-LAKE MARY RD" intnum="1574" />
<marker lat="28.6533121908147" lng="-81.3658611940755" intname="CR 427 and BALLARD ST" intnum="444" />
<marker lat="28.7764909435517" lng="-81.2763364910274" intname="SR 417 and US 17-92" intnum="99913" />
<marker lat="28.6615176006637" lng="-81.2243596824303" intname="SR 426 and OVIEDO MARKET PL BLVD" intnum="88800" />
<marker lat="28.6691025458882" lng="-81.3803990511695" intname="CENTRAL PKWY and FESTIVAL DR" intnum="7350" />
<marker lat="28.7541160648967" lng="-81.3584507234093" intname="LAKE EMMA RD and LAKE MARY CENTRE" intnum="99934" />
<marker lat="28.7562474639079" lng="-81.3655845611099" intname="LAKE MARY BLVD and I-4" intnum="6724" />
<marker lat="28.7562427280634" lng="-81.3612832574955" intname="LAKE MARY BLVD and I-4" intnum="99948" />
<marker lat="28.7561766644563" lng="-81.3548567702996" intname="LAKE MARY BLVD and LAKE MARY CENTRE" intnum="99955" />
<marker lat="28.6749787141172" lng="-81.3108690972625" intname="SEMINOLA BLVD and LAKE DR" intnum="2110" />
<marker lat="28.8095136394709" lng="-81.3348845499026" intname="TOWNE CENTER BLVD and N TOWNE RD" intnum="55562" />
<marker lat="28.7994513704007" lng="-81.3392094137724" intname="TOWNE CENTER BLVD and S MALL ENTRANCE" intnum="55559" />
<marker lat="28.8076525510532" lng="-81.3350453264192" intname="TOWNE CENTER BLVD and N MALL ENTRANCE" intnum="55561" />
<marker lat="28.7048032235046" lng="-81.281280756721" intname="SR 434 and WINDING HOLLOW BLVD" intnum="10021" />
<marker lat="28.6980139151852" lng="-81.3215023409959" intname="SR 434 and SUNSHADOW DR" intnum="8007" />
<marker lat="28.6901360367528" lng="-81.2339635421134" intname="SR 434 and VISTAWILLA DR" intnum="7435" />
<marker lat="28.6447402564415" lng="-81.4153101039433" intname="SR 434 and GATEWAY DR" intnum="10586" />
<marker lat="28.7864382932911" lng="-81.3580054839737" intname="CR 46A and INTERNATIONAL PKWY" intnum="10000" />
<marker lat="28.7864767616393" lng="-81.3287746288506" intname="CR 46A and OREGON AVE" intnum="1868" />
<marker lat="28.7865432045301" lng="-81.3081778748064" intname="CR 46A and VIHLEN RD" intnum="2434" />
<marker lat="28.7567791337425" lng="-81.3713034057502" intname="LAKE MARY BLVD and HEATHROW BLVD" intnum="5128" />
<marker lat="28.7562338766021" lng="-81.3421861622909" intname="LAKE MARY BLVD and FOREST BLVD" intnum="1506" />
<marker lat="28.7564561656854" lng="-81.2990963934798" intname="LAKE MARY BLVD and COLLEGE DR" intnum="1504" />
<marker lat="28.7577343009344" lng="-81.2909368305736" intname="LAKE MARY BLVD and LIVE OAK BLVD" intnum="8657" />
<marker lat="28.7600656702296" lng="-81.2691469809537" intname="LAKE MARY BLVD and SR 417 SB" intnum="11136" />
<marker lat="28.7473031817653" lng="-81.3445570669768" intname="GREENWOOD BLVD and LAKE WAY RD" intnum="5000" />
<marker lat="28.752747502642" lng="-81.3470936314674" intname="GREENWOOD BLVD and SUN DR" intnum="11266" />
<marker lat="28.7447949155076" lng="-81.3395573733002" intname="LAKE WAY RD and LAKE PARK DR" intnum="5797" />
<marker lat="28.6252152651083" lng="-81.3188879495575" intname="HOWELL BRANCH RD and BUTLER PLAZA" intnum="10411" />
<marker lat="28.7316436084108" lng="-81.3114743340656" intname="CR 427 and SILKWOOD CT" intnum="11471" />
<marker lat="28.777635458894" lng="-81.2950567264626" intname="AIRPORT BLVD and PLACID LAKE DR" intnum="8651" />
<marker lat="28.8283655938208" lng="-81.3229299697539" intname="CR 15 and ORANGE BLVD" intnum="3981" />
<marker lat="28.6520078102792" lng="-81.1565975656945" intname="CR 419 and TWIN RIVERS BLVD" intnum="4647" />
<marker lat="28.6702831270796" lng="-81.1953220490748" intname="CR 419 and ACADEMY AVE" intnum="7806" />
<marker lat="28.7129815553401" lng="-81.3844735401484" intname="MARKHAM WOODS RD and E E WILLIAMSON RD" intnum="1082" />
<marker lat="28.6119983757061" lng="-81.1919151022452" intname="MCCULLOCH RD and LOCKWOOD RD" intnum="9156" />
<marker lat="28.6559134010108" lng="-81.1887733030386" intname="MITCHELL HAMMOCK RD and ALAFAYA WOODS BLVD" intnum="8318" />
<marker lat="28.6726817718655" lng="-81.4025554536972" intname="MONTGOMERY RD and CENTRAL PKWY" intnum="3584" />
<marker lat="28.674541666507" lng="-81.4025634152404" intname="MONTGOMERY RD and GREEN BRIAR BLVD" intnum="1725" />
<marker lat="28.6812251766349" lng="-81.4025986101713" intname="MONTGOMERY RD and JAMESTOWN BLVD" intnum="1434" />
<marker lat="28.6851844803673" lng="-81.4026656779305" intname="MONTGOMERY RD and GOODINGS PLAZA" intnum="10126" />
<marker lat="28.6836617816697" lng="-81.402599115958" intname="MONTGOMERY RD and NORTH ST" intnum="6387" />
<marker lat="28.786460781488" lng="-81.3027163489626" intname="SR 417 and CR 46A" intnum="11561" />
<marker lat="28.6831268387822" lng="-81.3521035859061" intname="NORTH ST and BENNETT RD" intnum="691" />
<marker lat="28.6607509334943" lng="-81.2384703278827" intname="OVIEDO MALL BLVD and DOVERA DR" intnum="88801" />
<marker lat="28.6597660971361" lng="-81.236891856482" intname="OVIEDO MALL BLVD and MALL ENTRANCE" intnum="88802" />
<marker lat="28.6558549981243" lng="-81.3400402029214" intname="OXFORD RD and FERNWOOD BLVD" intnum="4305" />
<marker lat="28.6503221715526" lng="-81.3409702290331" intname="OXFORD RD and LAKE OF THE WOODS BLVD" intnum="4326" />
<marker lat="28.6696665794298" lng="-81.3740930987659" intname="PALM SPRINGS DR and CENTRAL PKWY" intnum="4031" />
<marker lat="28.6837034268201" lng="-81.3737630318426" intname="PALM SPRINGS DR and NORTH ST" intnum="4309" />
<marker lat="28.67912706936" lng="-81.373825302386" intname="PALM SPRINGS DR and OAKHURST ST" intnum="6634" />
<marker lat="28.7939839738712" lng="-81.2678705484074" intname="PARK AVE and 20TH ST" intnum="6855" />
<marker lat="28.6478846134931" lng="-81.25397724497" intname="RED BUG LAKE RD and CITRUS RD" intnum="3727" />
<marker lat="28.6476029567003" lng="-81.2792611874382" intname="RED BUG LAKE RD and DODD RD" intnum="946" />
<marker lat="28.6563775479786" lng="-81.2375293305604" intname="RED BUG LAKE RD and DOVERA BLVD" intnum="9081" />
<marker lat="28.6470380696053" lng="-81.3123627581028" intname="RED BUG LAKE RD and EAGLE CIR" intnum="1029" />
<marker lat="28.647477796413" lng="-81.2839248027025" intname="RED BUG LAKE RD and NODDING PINES WAY" intnum="1780" />
<marker lat="28.6559966095977" lng="-81.2409217952198" intname="RED BUG LAKE RD and OVIEDO MALL BLVD" intnum="9080" />
<marker lat="28.6477476306182" lng="-81.2582970932046" intname="RED BUG LAKE RD and RISING SUN-BROOKS LN" intnum="7785" />
<marker lat="28.6484697566884" lng="-81.2448580801429" intname="RED BUG LAKE RD and SLAVIA RD" intnum="7996" />
<marker lat="28.6476968739957" lng="-81.2681146694955" intname="RED BUG LAKE RD and TUSKAWILLA RD" intnum="2002" />
<marker lat="28.6476788073688" lng="-81.2658879073213" intname="RED BUG LAKE RD and RED WILLOW PLAZA" intnum="10171" />
<marker lat="28.8054345407881" lng="-81.3311392603864" intname="RINEHART RD and ST JOHNS PKWY" intnum="55557" />
<marker lat="28.7935602024047" lng="-81.3389319349805" intname="RINEHART RD and TOWNE CENTER BLVD" intnum="55558" />
<marker lat="28.7673182530584" lng="-81.3471369254781" intname="RINEHART RD and MANDERLY RN" intnum="9079" />
<marker lat="28.7652241004404" lng="-81.3471423785988" intname="RINEHART RD and PRIMERA BLVD" intnum="10176" />
<marker lat="28.7971589598594" lng="-81.3324249662254" intname="RINEHART RD and SR 417" intnum="11636" />
<marker lat="28.8002264272566" lng="-81.3310857507247" intname="RINEHART RD and SR 417 \/ WP BALL BLVD" intnum="11631" />
<marker lat="28.7742742327265" lng="-81.3471771058958" intname="RINEHART RD and WALLACE CT" intnum="10181" />
<marker lat="28.680069612254" lng="-81.4357379331606" intname="SAND LAKE RD and W LK BRANTLEY RD" intnum="4332" />
<marker lat="28.6800537526602" lng="-81.4249544434749" intname="SAND LAKE RD and FOREST CITY ELEMENTARY" intnum="11191" />
<marker lat="28.6800599207783" lng="-81.4211878426978" intname="SAND LAKE RD and LAKE BRANTLEY HIGH" intnum="10071" />
<marker lat="28.786458713576" lng="-81.3008364813403" intname="SR 417 and CR 46A" intnum="11556" />
<marker lat="28.6523005080956" lng="-81.3484085237601" intname="US 17-92 and LAKE OF THE WOODS BLVD" intnum="4301" />
<marker lat="28.6714214343508" lng="-81.3381919373809" intname="US 17-92 and LAKE TRIPLET DR" intnum="4302" />
<marker lat="28.6486180175812" lng="-81.3512625021262" intname="US 17-92 and O'BRIEN RD" intnum="1833" />
<marker lat="28.6424805419566" lng="-81.3546640981404" intname="US 17-92 and SPARTAN DR" intnum="2189" />
<marker lat="28.7305238767308" lng="-81.3100254021319" intname="US 17-92 and SR 419" intnum="4299" />
<marker lat="28.8116880838709" lng="-81.2731694599661" intname="US 17-92 and SR 46" intnum="4295" />
<marker lat="28.7352054843152" lng="-81.3055094810917" intname="US 17-92 and WELDON BLVD" intnum="4304" />
<marker lat="28.6896794814586" lng="-81.4069815962021" intname="WEKIVA SPRINGS RD and WEKIVA SPRINGS LN" intnum="7782" />
<marker lat="28.7040996515041" lng="-81.4206672180811" intname="WEKIVA SPRINGS RD and FOX VALLEY DR" intnum="1228" />
<marker lat="28.705839875379" lng="-81.4322972056455" intname="WEKIVA SPRINGS RD and RIVERBEND BLVD" intnum="2032" />
<marker lat="28.7022306236169" lng="-81.4189428053409" intname="WEKIVA SPRINGS RD and SABAL PALM DR" intnum="2062" />
<marker lat="28.6582920245994" lng="-81.4231537956636" intname="WEST TOWN PKWY and BUNNELL RD" intnum="1596" />
<marker lat="28.6665428656012" lng="-81.3903608007431" intname="WESTMONT DR and DOUGLAS AVE" intnum="983" />
<marker lat="28.6582482375332" lng="-81.4212905211255" intname="WEST TOWN PKWY and SHOPPES OF WEST TOWN" intnum="99928" />
<marker lat="28.6702665298831" lng="-81.2043302653082" intname="CR 419 and DIVISION ST" intnum="596" />
<marker lat="28.6635845302491" lng="-81.384181597036" intname="CRANES ROOST BLVD and SHORECREST DR" intnum="8031" />
<marker lat="28.6295507080114" lng="-81.2662938980682" intname="TUSCAWILLA RD and GABRIELLA LN" intnum="1246" />
<marker lat="28.8117208806072" lng="-81.2659688481537" intname="1ST and PALMETTO AVE" intnum="6811" />
<marker lat="28.7507479001975" lng="-81.2904462941068" intname="US 17-92 and COLLINS DR" intnum="3828" />
<marker lat="28.6505129673504" lng="-81.1510424545323" intname="CR 419 and LIVE OAK RESERVE" intnum="12991" />
<marker lat="28.6558648544974" lng="-81.2004907344877" intname="MITCHELL HAMMOCK and OVIEDO BLVD" intnum="9169" />
<marker lat="28.7624763412063" lng="-81.2844388174008" intname="US 17-92 and AMERICANA BLVD" intnum="4374" />
<marker lat="28.8082510657847" lng="-81.3479523681068" intname="INTERNATIONAL PKWY and WAYSIDE DR" intnum="11476" />
<marker lat="28.6996708169349" lng="-81.2652079811805" intname="SR 434 and DORAN DR" intnum="12076" />
<marker lat="28.7072514061512" lng="-81.4426372791881" intname="WEKIVA SPRINGS RD and SWEETWATER PED" intnum="13776" />
<marker lat="28.736984062776" lng="-81.3342854717686" intname="LONGWOOD-LAKE M ARY and LAKE MARY HS" intnum="13796" />
<marker lat="28.7712957826935" lng="-81.2469313605144" intname="AIRPORT BLVD and AIRLINE AVE" intnum="2636" />
<marker lat="28.7866212621492" lng="-81.2838864633811" intname="CR 46A (25TH ST) and RIDGEWOOD AVE" intnum="4317" />
<marker lat="28.7865912548055" lng="-81.2934826984961" intname="CR 46A (25TH ST)  and OLD LAKE MARY RD" intnum="1845" />
<marker lat="28.7864644805259" lng="-81.2976003765144" intname="CR 46A and AIRPORT BLVD" intnum="2658" />
<marker lat="28.7864706065814" lng="-81.347228548688" intname="CR 46A (25TH ST) and RINEHART RD" intnum="2029" />
<marker lat="28.7797410022797" lng="-81.296821751775" intname="AIRPORT BLVD and OLD LAKE MARY RD" intnum="1844" />
<marker lat="28.7749772574295" lng="-81.2926634570489" intname="AIRPORT BLVD and LIVE OAK BLVD" intnum="28" />
<marker lat="28.7711519140327" lng="-81.2646497417658" intname="AIRPORT BLVD and SANFORD AVE" intnum="31" />
<marker lat="28.760248781671" lng="-81.2656698208498" intname="CR 427 and LAKE MARY BLVD" intnum="3927" />
<marker lat="28.7575084828615" lng="-81.2936669400644" intname="LAKE MARY BLVD and HIDDEN LAKE DR" intnum="1507" />
<marker lat="28.7572584060421" lng="-81.3822205074197" intname="LAKE MARY BLVD and MARKHAM WOODS RD" intnum="4338" />
<marker lat="28.7565023202443" lng="-81.3681308928158" intname="LAKE MARY BLVD and INTERNATIONAL PKWAY" intnum="5412" />
<marker lat="28.7564375866519" lng="-81.3116470958842" intname="LAKE MARY BLVD and SIR LAWRENCE DR" intnum="2579" />
<marker lat="28.7562224650804" lng="-81.3333607674914" intname="LAKE MARY BLVD and LONGWOOD-LAKE MARY RD" intnum="4316" />
<marker lat="28.7562308256074" lng="-81.3577151388393" intname="LAKE MARY BLVD and LAKE EMMA RD" intnum="1487" />
<marker lat="28.7563036840703" lng="-81.3241256035106" intname="LAKE MARY BLVD and 4TH ST" intnum="5402" />
<marker lat="28.756275495476" lng="-81.3220761166359" intname="LAKE MARY BLVD and COUNTRY CLUB RD" intnum="3951" />
<marker lat="28.756168267574" lng="-81.3471453257247" intname="LAKE MARY BLVD and RINEHART RD" intnum="2026" />
<marker lat="28.75613071595" lng="-81.3523983895471" intname="LAKE MARY BLVD and SUN DR" intnum="5769" />
<marker lat="28.7496683439126" lng="-81.3592731662986" intname="LAKE EMMA RD and GREENWOOD BLVD" intnum="1486" />
<marker lat="28.7459811661999" lng="-81.3348161967245" intname="LONGWOOD LAKE MARY RD and LAKE WAY RD" intnum="5828" />
<marker lat="28.7420892780505" lng="-81.3587179777318" intname="LAKE EMMA RD and SAND POND RD" intnum="5698" />
<marker lat="28.738004846185" lng="-81.3586904561378" intname="LAKE EMMA RD and TECHNOLOGY WAY" intnum="5700" />
<marker lat="28.7347169460456" lng="-81.3417613521395" intname="LAKE PARK DR and GREENWAY BLVD" intnum="1309" />
<marker lat="28.7338781341207" lng="-81.3342324177915" intname="LONGWOOD-LAKE MARY RD and GREENWAY BLVD" intnum="1310" />
<marker lat="28.7335986191809" lng="-81.3586625004035" intname="LAKE EMMA RD and GREENWAY BLVD" intnum="1308" />
<marker lat="28.7277529246961" lng="-81.3219046851352" intname="LONGWOOD AVE and COUNTRY CLUB RD" intnum="3928" />
<marker lat="28.7217951459365" lng="-81.3359267209224" intname="LONGWOOD AVE and GENERAL HUTCHISON PKWY" intnum="780" />
<marker lat="28.7135117006645" lng="-81.3422519269577" intname="LONGWOOD AVE and LONGWOOD HILLS RD" intnum="783" />
<marker lat="28.8112886841097" lng="-81.3520295862633" intname="SR 46 and LAKE FOREST BLVD" intnum="8158" />
<marker lat="28.8112918184467" lng="-81.3478964248711" intname="SR 46 and INTERNATIONAL PKWY" intnum="10881" />
<marker lat="28.8113188654605" lng="-81.3414743437061" intname="SR 46 and WAYSIDE DR" intnum="1843" />
<marker lat="28.8114023072801" lng="-81.334239071455" intname="SR 46 and HICKMAN DR- TOWNE CENTER BLVD" intnum="1191" />
<marker lat="28.8057980467642" lng="-81.3350488051762" intname="TOWNE CENTER BLVD and ST JOHNS PKWY" intnum="55560" />
<marker lat="28.6755544360686" lng="-81.2700849604929" intname="TUSCAWILLA RD and WINTER SPRINGS BLVD" intnum="7589" />
<marker lat="28.6640702522498" lng="-81.2751697589499" intname="TUSKAWILLA RD and DYSON DR" intnum="4398" />
<marker lat="28.6582230612876" lng="-81.2746256883632" intname="TUSKAWILLA RD and EAGLE BLVD" intnum="1028" />
<marker lat="28.6845568052122" lng="-81.2658903101119" intname="TUSKAWILLA RD and TROTWOOD BLVD" intnum="7578" />
<marker lat="28.7467932879939" lng="-81.2942191355708" intname="US 17-92 and N BUSH BLVD" intnum="3391" />
<marker lat="28.8007813044188" lng="-81.2730916800425" intname="US 17-92 and HISTORIC GOLDSBORO BLVD" intnum="4296" />
<marker lat="28.679691583198" lng="-81.3356260498154" intname="US 17-92 and BUTTON RD" intnum="663" />
<marker lat="28.7421393924784" lng="-81.2987505573106" intname="US 17-92 and COUNTY HOME RD" intnum="774" />
<marker lat="28.7564644630275" lng="-81.2873342213889" intname="US 17-92 and LAKE MARY BLVD" intnum="1509" />
<marker lat="28.6466158356613" lng="-81.1367424571536" intname="CR 419 and SNOWHILL RD" intnum="7821" />
<marker lat="28.7586540063335" lng="-81.2415927229595" intname="E LAKE MARY BLVD and RED CLEVELAND BLVD" intnum="13141" />
<marker lat="28.8117549533586" lng="-81.2649935198806" intname="1ST ST and SANFORD AVE" intnum="7731" />
<marker lat="28.8116818722932" lng="-81.2680257538693" intname="1ST ST and PARK AVE" intnum="6854" />
<marker lat="28.6772361859526" lng="-81.3232637215997" intname="SEMINOLA BLVD and N TRIPLET LAKE DR" intnum="13586" />
<marker lat="28.6610693651318" lng="-81.3659107533939" intname="CR 427 (MAITLAND AVE) and ORIENTA AVE" intnum="2580" />
<marker lat="28.7216400462559" lng="-81.3186855127134" intname="US 17-92 and GENERAL HUTCHINSON PKWY" intnum="1258" />
<marker lat="28.7331115803754" lng="-81.3075119281262" intname="US 17-92 and CR 427" intnum="781" />
<marker lat="28.6200944446614" lng="-81.2661521800096" intname="TUSCAWILLA RD and TUSCAWILLA CROSSING" intnum="13766" />
<marker lat="28.7132973730219" lng="-81.3584676201134" intname="LONGWOOD HILLS RD and LAKE EMMA RD" intnum="5696" />
<marker lat="28.6725524982992" lng="-81.4493798746048" intname="HUNT CLUB BLVD and PLAZA ENTRANCE" intnum="10876" />
<marker lat="28.6181337684435" lng="-81.2821567802089" intname="HOWELL BRANCH RD and BEAR GULLY RD" intnum="365" />
<marker lat="28.6473128149111" lng="-81.2907581047958" intname="RED BUG LAKE RD and MERIVALE DR" intnum="1670" />
<marker lat="28.6475076457952" lng="-81.3657650768366" intname="CR 427 (MAITLAND AVE) and SPRING LAKE RD" intnum="2199" />
<marker lat="28.6439657384746" lng="-81.3657253509176" intname="CR 427 (MAITLAND AVE) and ORANOLE RD" intnum="1866" />
<marker lat="28.636702030976" lng="-81.2790713736475" intname="DODD RD and DIKE RD" intnum="1016" />
<marker lat="28.6334023360155" lng="-81.3242252832476" intname="LAKE HOWELL RD and TUSCARORA TRL" intnum="2389" />
<marker lat="28.6324517019479" lng="-81.3242003692469" intname="LAKE HOWELL RD and LK HOWELL LN" intnum="1495" />
<marker lat="28.6250431294364" lng="-81.3024824757838" intname="HOWELL BRANCH RD and EASTBROOK BLVD" intnum="1058" />
<marker lat="28.6237062851712" lng="-81.2951362822189" intname="HOWELL BRANCH RD and DIKE RD" intnum="918" />
<marker lat="28.6227530306888" lng="-81.2840958266282" intname="HOWELL BRANCH RD and DODD RD" intnum="941" />
<marker lat="28.6406203115379" lng="-81.4152838124977" intname="SR 434 and SR 414" intnum="4343" />
<marker lat="28.6492771980791" lng="-81.2081495352716" intname="SR 434 and ALAFAYA WOODS BLVD" intnum="2678" />
<marker lat="28.803902524686" lng="-81.3226979229114" intname="UPSALA RD and ST JOHNS PKWY" intnum="13151" />
<marker lat="28.7602477726397" lng="-81.2645587554727" intname="E LAKE MARY BLVD and SANFORD AVE" intnum="2146" />
<marker lat="28.7864407626446" lng="-81.3056297433498" intname="CR 46A and CASA VERDE BLVD" intnum="8971" />
<marker lat="28.618592591398" lng="-81.2617101977401" intname="SR 426 and DEEP LAKE RD" intnum="4180" />
<marker lat="28.6479665642726" lng="-81.2499655958462" intname="RED BUG LAKE RD and MIKLER RD" intnum="1680" />
<marker lat="28.6890831140261" lng="-81.3290014375184" intname="US 17-92 and LAURA ST" intnum="1539" />
<marker lat="28.7864032857092" lng="-81.3493610294758" intname="I-4 and CR 46A" intnum="10716" />
<marker lat="28.786441783871" lng="-81.3509754031369" intname="I-4 and CR 46A" intnum="10711" />
<marker lat="28.7892247139629" lng="-81.2985157864056" intname="ML KING JR BLVD and W AIRPORT" intnum="29058" />
<marker lat="28.6553353790844" lng="-81.3458811028614" intname="US 17 92 and PRAIRIE LAKE DR" intnum="5254" />
<marker lat="28.6869647000415" lng="-81.3905420374033" intname="DOUGLAS AVE and COMMERCE PARK DR" intnum="22726" />
<marker lat="28.700844208026" lng="-81.3464834562223" intname="LONGWOOD AVE and CHURCH AVE" intnum="3693" />
<marker lat="28.8114186913196" lng="-81.3024535355141" intname="SR 46 and ML KING JR BLVD" intnum="468" />
<marker lat="28.7598567369054" lng="-81.2857072072936" intname="US 17-92 and WALMART\/LOWES" intnum="14366" />
<marker lat="28.6759778120397" lng="-81.3367158047237" intname="US 17-92 and PLUMOSA AVE" intnum="5253" />
<marker lat="28.6848589642254" lng="-81.3376828948106" intname="DOGTRACK RD and NORTHLAND CHURCH" intnum="13181" />
<marker lat="28.6979140478852" lng="-81.3176214107448" intname="SR 434 W and WINTER PARK DR N" intnum="29278" />
<marker lat="28.813949267157" lng="-81.2659698090259" intname="SEMINOLE BLVD and PALMETO AVE" intnum="2115" />
<marker lat="28.8007249090213" lng="-81.2772446449363" intname="HISTORIC GOLDSBORO BLVD and WILLIAM CLARK AVE" intnum="5651" />
<marker lat="28.6547062726371" lng="-81.4270411008331" intname="BUNNELL RD and PEARL LAKE CSWY\/LOTUS CLUB DR" intnum="21915" />
<marker lat="28.7041921182538" lng="-81.2698548753079" intname="SR 434 and CENTRAL WINDS DR" intnum="10641" />
<marker lat="28.7955331804295" lng="-81.3544568267107" intname="SR 417 and INTERNATIONAL PKWY" intnum="23346" />
<marker lat="28.7864724830676" lng="-81.3180524970182" intname="CR 46A and COUNTRY CLUB RD" intnum="5662" />
<marker lat="28.6561327288892" lng="-81.4252661823016" intname="BUNNELL RD and SUNSHINE LN" intnum="655" />
<marker lat="28.6120109214998" lng="-81.1745199214781" intname="MCCULLOCH and OLD LOCKWOOD RD\/TANNER RD" intnum="8758" />
<marker lat="28.6631920456329" lng="-81.3821494984297" intname="FESTIVAL DRand" intnum="13771" />
<marker lat="28.6251211202126" lng="-81.3240312388811" intname="HOWELL BRANCH RD and LAKE HOWELL RD" intnum="1497" />
<marker lat="28.6978483848347" lng="-81.3380925349069" intname="SR 434 and GRANT ST" intnum="4287" />
<marker lat="28.697903055602" lng="-81.3621985959665" intname="SR 434 and RANGELINE RD" intnum="1993" />
<marker lat="28.697828079021" lng="-81.3717448149133" intname="SR 434 and PALM SPRINGS DR" intnum="4288" />
<marker lat="28.6978146923265" lng="-81.3745825674065" intname="SR 434 and TOLLGATE TRL" intnum="2365" />
<marker lat="28.697768969716" lng="-81.3528866529407" intname="SR 434 and FLORIDA CENTRAL PKWY" intnum="4293" />
<marker lat="28.6966869613215" lng="-81.2624134638432" intname="SR 434 and TUSKAWILLA RD" intnum="2392" />
<marker lat="28.6919899029285" lng="-81.3864434996248" intname="SR 434 and RAYMOND AVE" intnum="1999" />
<marker lat="28.6878103666003" lng="-81.4065518964783" intname="SR 434 and MANOR AVE" intnum="1621" />
<marker lat="28.6872769880611" lng="-81.4027538314124" intname="SR 434 and WEKIVA SPRINGS RD" intnum="2472" />
<marker lat="28.6872574383376" lng="-81.4008896150239" intname="SR 434 and SPRINGS BLVD" intnum="4290" />
<marker lat="28.6869869880114" lng="-81.4134016327224" intname="SR 434 and E LK BRANTLEY DR" intnum="1037" />
<marker lat="28.6828157820811" lng="-81.418965343063" intname="SR 434 and JAMESTOWN BLVD" intnum="4292" />
<marker lat="28.6800287702541" lng="-81.4190033022163" intname="SR 434 and SAND LAKE RD" intnum="2078" />
<marker lat="28.6798189478836" lng="-81.3331490887878" intname="SEMINOLA BLVD and BUTTON RD" intnum="2109" />
<marker lat="28.6770699700678" lng="-81.2084780049418" intname="SR 434 and MAGNOLIA ST" intnum="6144" />
<marker lat="28.672028244978" lng="-81.4190299021176" intname="SR 434 and SAN SEBASTIAN PRADO" intnum="2076" />
<marker lat="28.6716391784752" lng="-81.4551222064979" intname="SR 436 and BALMY BEACH DR" intnum="291" />
<marker lat="28.6702721628033" lng="-81.2125499391891" intname="SR 426 and LAKE JESSUP RD" intnum="4337" />
<marker lat="28.6694948318138" lng="-81.4501322942752" intname="SR 436 and HUNT CLUB BLVD" intnum="4274" />
<marker lat="28.6695055352613" lng="-81.4438363488615" intname="SR 436 and BEAR LAKE RD" intnum="396" />
<marker lat="28.6680432276695" lng="-81.2243468335341" intname="SR 426 and WINTER SPRINGS BLVD" intnum="4335" />
<marker lat="28.666876659389" lng="-81.4313170192888" intname="SR 436 and W LK BRANTLEY RD" intnum="4275" />
<marker lat="28.6660431125975" lng="-81.4272845992413" intname="SR 436 and PEARL LAKE CAUSEWAY" intnum="6907" />
<marker lat="28.665403859422" lng="-81.4236969131589" intname="SR 436 and LAKE HARRIET DR" intnum="1493" />
<marker lat="28.6653767118586" lng="-81.4190644538651" intname="SR 436 and SR 434" intnum="4276" />
<marker lat="28.6650482403679" lng="-81.4144394306265" intname="SR 436 and LAUREL ST" intnum="2077" />
<marker lat="28.6638716107861" lng="-81.3711404015818" intname="SR 436 and BOSTON AVE" intnum="3235" />
<marker lat="28.6638470761902" lng="-81.3741063217199" intname="SR 436 and PALM SPRINGS DR" intnum="4283" />
<marker lat="28.6637493784003" lng="-81.3780944522979" intname="SR 436 and ESSEX AVE" intnum="4278" />
<marker lat="28.6634432443881" lng="-81.3659530922246" intname="SR 436 and CR 427" intnum="1616" />
<marker lat="28.6631874586593" lng="-81.3597319841686" intname="SR 436 and NEWBURYPORT AVE" intnum="4282" />
<marker lat="28.6632354514412" lng="-81.3456316650984" intname="SR 436 and ANCHOR RD" intnum="1501" />
<marker lat="28.6623176237756" lng="-81.3821477258904" intname="SR 436 and HATTAWAY DR" intnum="1347" />
<marker lat="28.6618870982113" lng="-81.4189998549268" intname="SR 434 and ORANGE AVE" intnum="4342" />
<marker lat="28.6618982736733" lng="-81.3989974414549" intname="SR 436 and LYNCHFIELD AVE" intnum="1583" />
<marker lat="28.6618948230762" lng="-81.402776271557" intname="SR 436 and MONTGOMERY RD" intnum="1726" />
<marker lat="28.6618846302319" lng="-81.3969718976744" intname="SR 436 and GRACE BLVD" intnum="1284" />
<marker lat="28.6619781664683" lng="-81.3842455415306" intname="SR 436 and NORTH LAKE BLVD \/ CRANES ROOST" intnum="4277" />
<marker lat="28.6586922139239" lng="-81.3378841351548" intname="SR 436 and OXFORD RD" intnum="1900" />
<marker lat="28.6567108072215" lng="-81.3349389194587" intname="SR 436 and FERN PARK" intnum="4612" />
<marker lat="28.6869727403187" lng="-81.3953609060158" intname="SR 434 and SANLANDO" intnum="99989" />
<marker lat="28.6511250463891" lng="-81.4157723107291" intname="SR 434 and TRAILWOOD DR" intnum="2375" />
<marker lat="28.6582396724577" lng="-81.4193087079341" intname="SR 434 and WEST TOWNE PKWY" intnum="654" />
<marker lat="28.6702839836143" lng="-81.2076527977564" intname="CR 419 and CR 426" intnum="4311" />
<marker lat="28.7567710346019" lng="-81.2693712274027" intname="SR 417 and (CR 427)" intnum="99912" />
<marker lat="28.7576213516048" lng="-81.2681521520674" intname="SR 417 and (CR 427)" intnum="99911" />
<marker lat="28.690186227099" lng="-81.2287717246972" intname="SR 417 and WEST RAMP (SR 434)" intnum="99910" />
<marker lat="28.6902180117314" lng="-81.2268971548165" intname="SR 417 and EAST RAMP (SR 434)" intnum="99909" />
<marker lat="28.6564267701749" lng="-81.2334558143279" intname="SR 417 and WEST RAMP (RED BUG LK RD)" intnum="99908" />
<marker lat="28.656309238306" lng="-81.2310383710404" intname="SR 417 and EAST RAMP" intnum="99907" />
<marker lat="28.7600679925323" lng="-81.2706965032353" intname="SR 417 NB and LAKE MARY BLVD" intnum="99906" />
<marker lat="28.6186544657634" lng="-81.2579325448405" intname="SR 426 and EXPRESSWAY (NORTH OFF RAMP)" intnum="99933" />
<marker lat="28.6186423891317" lng="-81.2590960652422" intname="SR 426 and EXPRESSWAY (SOUTH ON RAMP)" intnum="99932" />
<marker lat="28.6115734747861" lng="-81.2784492011038" intname="SR 426 and HOWELL BRANCH RD" intnum="4334" />
<marker lat="28.7129331504669" lng="-81.371881726623" intname="EE WILLIAMSON RD and WOODLANDS ELEMENTARY" intnum="99920" />
<marker lat="28.7131327875288" lng="-81.3623664473502" intname="EE WILLIAMSON-LONGWOOD HILLS RD and RANGELINE RD" intnum="1088" />
<marker lat="28.6238333279872" lng="-81.2876818127178" intname="HOWELL BRANCH RD and FS 23" intnum="99950" />
<marker lat="28.7014057006935" lng="-81.4181612420426" intname="WEKIVA SPRINGS RD and FS 16" intnum="99987" />
<marker lat="28.704048882586" lng="-81.2885628138175" intname="SR 434 and CONSOLIDATED SERVICES" intnum="7700" />
<marker lat="28.6265193760229" lng="-81.2078893627101" intname="SR 434 and CARRIGAN AVE" intnum="3512" />
<marker lat="28.615737500946" lng="-81.2077028717856" intname="SR 434 and PALM VALLEY DR" intnum="6794" />
<marker lat="28.6728065756963" lng="-81.4596606390103" intname="SR 436 and LINE DR" intnum="5978" />
<marker lat="28.6689596010902" lng="-81.4363608702912" intname="SR 436 and POST LAKE PL" intnum="99993" />
<marker lat="28.6593914059513" lng="-81.3392696035169" intname="SR 436 and PLAZA ENTRANCE" intnum="99995" />
<marker lat="28.7070282248669" lng="-81.3047748642459" intname="SR 419 and EDGEMON AVE" intnum="4448" />
<marker lat="28.6409222890137" lng="-81.2286765697555" intname="CHAPMAN RD and WOODPECKER LN" intnum="4491" />
<marker lat="28.6262095027182" lng="-81.2448418083621" intname="SR 426 and ALOMA WOODS BLVD" intnum="11131" />
<marker lat="28.661848798208" lng="-81.4149172611254" intname="ORANGE AVE and LAUREL AVE" intnum="10081" />
<marker lat="28.6667099424802" lng="-81.3740891479137" intname="PALM SPRINGS DR and MID BLOCK" intnum="55556" />
<marker lat="28.8008018489663" lng="-81.2679086055589" intname="PARK AVE and 13TH ST" intnum="6861" />
<marker lat="28.6469630469447" lng="-81.3202456715423" intname="RED BUG LAKE RD and FS 25" intnum="99988" />
<marker lat="28.6801367964173" lng="-81.4499028472197" intname="SAND LAKE RD and HUNT CLUB BLVD" intnum="1413" />
<marker lat="28.680083439271" lng="-81.431421200655" intname="SAND LAKE RD and W LK BRANTLEY RD" intnum="4333" />
<marker lat="28.8013041888525" lng="-81.264858647337" intname="SANFORD AVE and CELERY AVE" intnum="682" />
<marker lat="28.6618904592504" lng="-81.406576516406" intname="SR 436 and WEATHERSFIELD AVE" intnum="2470" />
<marker lat="28.6618991167804" lng="-81.3936020990011" intname="SR 436 and WESTMONTE DR" intnum="2487" />
<marker lat="28.6514405642709" lng="-81.3283096818056" intname="SR 436 and WILSHIRE BLVD" intnum="2516" />
<marker lat="28.6189434346966" lng="-81.3128039570437" intname="SR 436 and WINTER WOODS BLVD" intnum="2541" />
<marker lat="28.6619709065949" lng="-81.39035340066" intname="SR 436 and WYMORE RD" intnum="2567" />
<marker lat="28.6836356393044" lng="-81.334215769216" intname="US 17-92 and SEMINOLA BLVD" intnum="4300" />
<marker lat="28.6978925890684" lng="-81.3271427929424" intname="US 17-92 and SR 434" intnum="4286" />
<marker lat="28.6606660935277" lng="-81.3416129681702" intname="US 17-92 and SR 436" intnum="4279" />
<marker lat="28.6952474561427" lng="-81.4125166385081" intname="WEKIVA SPRINGS RD and E LAKE BRANTLEY DR" intnum="4313" />
<marker lat="28.7080884288836" lng="-81.4453573321642" intname="WEKIVA SPRINGS RD and HUNT CLUB BLVD" intnum="4312" />
<marker lat="28.6640340219916" lng="-81.3177049310055" intname="WINTER PARK DR and CRYSTAL BOWL CIR" intnum="4100" />
<marker lat="28.6620460420531" lng="-81.3201561819657" intname="WINTER PARK DR and QUEENS MIRROR CIR" intnum="4327" />
<marker lat="28.6750866507461" lng="-81.3176071606589" intname="WINTER PARK DR and SEMINOLA BLVD" intnum="4306" />
<marker lat="28.6520295998423" lng="-81.3225574777324" intname="WINTER PARK DR and WILSHIRE DR" intnum="4308" />
<marker lat="28.6430760844478" lng="-81.3896919273628" intname="WYMORE RD and LAKE DESTINY RD" intnum="4314" />
<marker lat="28.640311309876" lng="-81.3862857679492" intname="WYMORE RD and ORANOLE RD" intnum="4315" />
<marker lat="28.6562271563411" lng="-81.3903486033521" intname="WYMORE RD and SPRING VALLEY RD" intnum="2213" />
<marker lat="28.6400901644932" lng="-81.435588837935" intname="SR 414 and EDEN PARK AVE" intnum="11291" />
<marker lat="28.6398978389872" lng="-81.4436021169286" intname="SR 414 and BEAR LAKE RD" intnum="11341" />
<marker lat="28.6702794292582" lng="-81.2209077443215" intname="SR 426 and PINE ST" intnum="6970" />
<marker lat="28.8146235595463" lng="-81.4056501064592" intname="SR 46 and LONGWOOD-MARKHAM RD" intnum="1576" />
<marker lat="28.6404074303813" lng="-81.4273927455369" intname="SR 414 and MAGNOLIA HOMES RD" intnum="11256" />
<marker lat="28.8112986464592" lng="-81.2979956179496" intname="SR 46 and AIRPORT BLVD" intnum="32" />
<marker lat="28.8012849159261" lng="-81.2556129227202" intname="CELERY AVE and MELLONVILLE AVE" intnum="1664" />
<marker lat="28.7866965410687" lng="-81.264784456988" intname="25TH ST and SANFORD AVE" intnum="4310" />
<marker lat="28.7034483234349" lng="-81.2914169278472" intname="SR 434 and SR 419" intnum="7477" />
<marker lat="28.701400394458" lng="-81.2957692454216" intname="SR 434 and HAYES RD" intnum="5114" />
<marker lat="28.7333911883969" lng="-81.1151421713394" intname="SR 46 (GENEVA AVE) and CR 426" intnum="2576" />
<marker lat="28.8116144917811" lng="-81.3227344691758" intname="SR 46 and CR 15" intnum="2405" />
<marker lat="28.7867708712708" lng="-81.2299454808959" intname="SR 46 and FS 41" intnum="99951" />
<marker lat="28.7377293499147" lng="-81.1200041980157" intname="SR 46 and FS 42" intnum="99915" />
<marker lat="28.8113345133838" lng="-81.338851155269" intname="SR 46 and I-4" intnum="4655" />
<marker lat="28.8118616423277" lng="-81.3630092122882" intname="SR 46 and ORANGE BLVD" intnum="1857" />
<marker lat="28.7866800573251" lng="-81.2678204136151" intname="SR 46 and PARK AVE" intnum="7708" />
<marker lat="28.8116266188531" lng="-81.3311766349442" intname="SR 46 and RINEHART RD" intnum="7935" />
<marker lat="28.7868422431152" lng="-81.2127365767639" intname="SR 46 and SR 415" intnum="4842" />
<marker lat="28.6368033388658" lng="-81.26646929135" intname="TUSKAWILLA RD and DIKE RD" intnum="924" />
<marker lat="28.6626400955439" lng="-81.2752607506821" intname="TUSKAWILLA RD and E LAKE DR" intnum="4336" />
<marker lat="28.8319840523409" lng="-81.3198580392033" intname="US 17-92 and CR 15" intnum="2103" />
<marker lat="28.7986338962212" lng="-81.2731000103395" intname="US 17-92 and 15TH ST" intnum="4770" />
<marker lat="28.7939614265586" lng="-81.2730986600644" intname="US 17-92 and 20TH ST" intnum="4772" />
<marker lat="28.7784175362706" lng="-81.2750591799937" intname="US 17-92 and 27TH ST \/ FLORIDA STREET" intnum="4298" />
<marker lat="28.809878443975" lng="-81.2731547552039" intname="US 17-92 and 3RD ST" intnum="4776" />
<marker lat="28.7692494467514" lng="-81.2808911134922" intname="US 17-92 and AIRPORT BLVD" intnum="2648" />
<marker lat="28.7455589664959" lng="-81.2954014390486" intname="US 17-92 and BARGIN BLVD" intnum="99945" />
<marker lat="28.7866783615923" lng="-81.2730293296395" intname="US 17-92 and CR 46A \/ 25TH STREET" intnum="4297" />
<marker lat="28.6979777480496" lng="-81.3339111318323" intname="SR 434 and WAYMAN ST" intnum="7482" />
<marker lat="28.7043840509362" lng="-81.2946237485996" intname="SR 419 and LAYER ELEMENTARY SCHOOL" intnum="13356" />
<marker lat="28.8338810778084" lng="-81.3236913182531" intname="US 17-92 and  I-4 W OFF RAMP" intnum="99922" />
<marker lat="28.6237438004538" lng="-81.2463847207075" intname="SR 426 and LOMA VISTA PL" intnum="13146" />
<marker lat="28.6630906883524" lng="-81.3801624812319" intname="SR 436 and RENAISSANCE PLAZA" intnum="8016" />
<marker lat="28.655596115768" lng="-81.2259605513087" intname="SR 426 and MITCHELL HAMMOCK RD" intnum="1704" />
<marker lat="28.6488954933973" lng="-81.3251356781985" intname="SR 436 and KEWANNEE TRL" intnum="4280" />
<marker lat="28.6481341338281" lng="-81.2303287344375" intname="SR 426 and SLAVIA RD" intnum="2001" />
<marker lat="28.6468733149895" lng="-81.3230405181989" intname="SR 436 and RED BUG LK RD" intnum="2003" />
<marker lat="28.6443486056656" lng="-81.322231548535" intname="SR 436 and SAUSALITO BLVD" intnum="4281" />
<marker lat="28.6410766536669" lng="-81.208015847106" intname="SR 434 and CHAPMAN RD" intnum="688" />
<marker lat="28.6409342158943" lng="-81.2338073029759" intname="SR 426 and CHAPMAN RD" intnum="3618" />
<marker lat="28.6393142279014" lng="-81.3223345654086" intname="SR 436 and LAKE HOWELL RD" intnum="4331" />
<marker lat="28.6325214636012" lng="-81.3192047015216" intname="SR 436 and LAKE HOWELL LN" intnum="1496" />
<marker lat="28.6252682378032" lng="-81.3157866339592" intname="SR 436 and HOWELL BRANCH RD" intnum="1407" />
<marker lat="28.619561316053" lng="-81.2492300379729" intname="SR 426 and DEAN RD" intnum="870" />
<marker lat="28.6186297695891" lng="-81.2660358457035" intname="SR 426 and TUSKAWILLA RD" intnum="4318" />
<marker lat="28.6143000150325" lng="-81.2726893158776" intname="SR 426 and TRINITY PREP" intnum="7690" />
<marker lat="28.6118933792527" lng="-81.3094708729938" intname="SR 436 and CASSELTON DR" intnum="3528" />
<marker lat="28.6111514663478" lng="-81.2824453147862" intname="SR 426 and HOWELL BRANCH RD" intnum="1406" />
<marker lat="28.6619650548107" lng="-81.3878671335677" intname="SR 436 and I-4 (SR 400)" intnum="99999" />
<marker lat="28.6619659312982" lng="-81.3892843137425" intname="SR 436 and I-4 (SR 400)" intnum="99998" />
<marker lat="28.6632030637604" lng="-81.3579513847247" intname="SR 436 and CR 427" intnum="4273" />
<marker lat="28.6638413624371" lng="-81.3760668519679" intname="SR 436 and BARNETT BANK" intnum="99996" />
<marker lat="28.635959146216" lng="-81.320809655012" intname="SR 436 and LAKE HOWELL SQUARE" intnum="99994" />
<marker lat="28.6631203267962" lng="-81.3531292552323" intname="SR 436 and PRAIRIE LAKE PLAZA" intnum="99925" />
<marker lat="28.6911156825348" lng="-81.3879100317486" intname="SR 434 and I-4 EAST" intnum="99991" />
<marker lat="28.6903265235715" lng="-81.3892526222097" intname="SR 434 and I-4 WEST" intnum="99990" />
<marker lat="28.8113652573285" lng="-81.3369781410187" intname="SR 46 and I-4" intnum="7555" />
<marker lat="28.7148916854999" lng="-81.3244273992409" intname="US 17-92 and SHEPARD RD" intnum="2132" />
<marker lat="28.81158825971" lng="-81.3174241728783" intname="SR 46 and CENTRAL PARK" intnum="9115" />
<marker lat="28.7008264755351" lng="-81.3269853904153" intname="US 17-92 and E CHURCH AVE" intnum="716" />
<marker lat="28.7820189908694" lng="-81.2730028190004" intname="US 17-92 and PARK DR" intnum="2595" />
<marker lat="28.6476713550462" lng="-81.2698173614425" intname="RED BUG LAKE RD and WILLA SPRINGS CENTER" intnum="99904" />
<marker lat="28.7948115477045" lng="-81.3353739425307" intname="RINEHART RD and OREGON AVE" intnum="9167" />
<marker lat="28.6986998784702" lng="-81.3054585071455" intname="SR434 and MOSS RD" intnum="4294" />
<marker lat="28.7619061198899" lng="-81.3471298437888" intname="RINEHAR RD and CRYSTAL LAKE ELEM" intnum="14376" />
<marker lat="28.7792575645404" lng="-81.3472162444771" intname="RINEHART RD and POST OFFICE DISTRIBUTION" intnum="10191" />
<marker lat="28.7821788225232" lng="-81.3472216758207" intname="RINEHART RD and TIMACUAN BLVD" intnum="7878" />
<marker lat="28.6531476936451" lng="-81.428918020761" intname="BUNNELL RD and COUNTRY CREEK PKWY" intnum="17913" />
<marker lat="28.6533694512101" lng="-81.161624166158" intname="CR 419 and FS 48" intnum="4406" />
<marker lat="28.6694746797245" lng="-81.4414897714314" intname="SR 436 and HARLEY LESTER(FS 13)" intnum="8565" />
<marker lat="28.6476023468437" lng="-81.2754139847445" intname="RED BUG LAKE RD and FS 27" intnum="99917" />
<marker lat="28.6622087629904" lng="-81.409136165294" intname="SR 436 and ORANGE AVE" intnum="6699" />
<marker lat="28.6555300770711" lng="-81.1932934665672" intname="MITCHELL HAMMOCK RD and KINGSBRIDGE DR" intnum="8046" />
<marker lat="28.677069589319" lng="-81.3078017250022" intname="SEMINOLA BLVD and MURPHY RD" intnum="1446" />
<marker lat="28.6618286869089" lng="-81.4114832376664" intname="WEST TOWN PKWY and ORANGE AVE" intnum="23421" />
<marker lat="28.6558539986232" lng="-81.2040859182623" intname="MITCHCELL HAMMOCK RD and CLARA LEE EVANS WAY" intnum="8466" />
</markers>
